{
"type": "FeatureCollection",
"name": "pplants",
"features": [
{ "type": "Feature", "id": 1, "properties": { "primary_fuel": "Coal", "name": "COSTANERA", "capacity_mw": 1982.2, "owner": "ENDESA COSTANERA", "source": "Ministerio de Energía y Minería", "url": "http:\/\/energia3.mecon.gov.ar\/contenidos\/archivos\/Reorganizacion\/informacion_del_mercado\/publicaciones\/mercado_electrico\/estadisticosectorelectrico\/2015\/A1.POT_GEN_COMB_POR_CENTRAL_2015.xlsx" }, "geometry": { "type": "Point", "coordinates": [ -58.3393, -34.626 ] } },
{ "type": "Feature", "id": 2, "properties": { "primary_fuel": "Coal", "name": "Bayswater", "capacity_mw": 2640.0, "owner": "Macquarie Generation", "source": "Australian Renewable Energy Mapping Infrastructure", "url": "http:\/\/services.ga.gov.au\/site_3\/rest\/services\/Electricity_Infrastructure\/MapServer" }, "geometry": { "type": "Point", "coordinates": [ 150.9491, -32.3953 ] } },
{ "type": "Feature", "id": 3, "properties": { "primary_fuel": "Coal", "name": "Eraring", "capacity_mw": 2880.0, "owner": "Origin Energy", "source": "Australian Renewable Energy Mapping Infrastructure", "url": "http:\/\/services.ga.gov.au\/site_3\/rest\/services\/Electricity_Infrastructure\/MapServer" }, "geometry": { "type": "Point", "coordinates": [ 151.5206, -33.0621 ] } },
{ "type": "Feature", "id": 4, "properties": { "primary_fuel": "Coal", "name": "Gladstone", "capacity_mw": 1680.0, "owner": "GPS Joint Venture", "source": "Australian Renewable Energy Mapping Infrastructure", "url": "http:\/\/services.ga.gov.au\/site_3\/rest\/services\/Electricity_Infrastructure\/MapServer" }, "geometry": { "type": "Point", "coordinates": [ 151.2187, -23.8508 ] } },
{ "type": "Feature", "id": 5, "properties": { "primary_fuel": "Coal", "name": "Hazelwood", "capacity_mw": 1600.0, "owner": "Hazelwood Power", "source": "Australian Renewable Energy Mapping Infrastructure", "url": "http:\/\/services.ga.gov.au\/site_3\/rest\/services\/Electricity_Infrastructure\/MapServer" }, "geometry": { "type": "Point", "coordinates": [ 146.3923, -38.2731 ] } },
{ "type": "Feature", "id": 6, "properties": { "primary_fuel": "Coal", "name": "Liddell", "capacity_mw": 2200.0, "owner": "Macquarie Generation", "source": "Australian Renewable Energy Mapping Infrastructure", "url": "http:\/\/services.ga.gov.au\/site_3\/rest\/services\/Electricity_Infrastructure\/MapServer" }, "geometry": { "type": "Point", "coordinates": [ 150.9776, -32.3713 ] } },
{ "type": "Feature", "id": 7, "properties": { "primary_fuel": "Coal", "name": "Loy Yang A", "capacity_mw": 2180.0, "owner": "GEAC Great Energy Alliance Corporation", "source": "Australian Renewable Energy Mapping Infrastructure", "url": "http:\/\/services.ga.gov.au\/site_3\/rest\/services\/Electricity_Infrastructure\/MapServer" }, "geometry": { "type": "Point", "coordinates": [ 146.5746, -38.2536 ] } },
{ "type": "Feature", "id": 8, "properties": { "primary_fuel": "Coal", "name": "Loy Yang B", "capacity_mw": 1000.0, "owner": "IPM Australia Limited", "source": "Australian Renewable Energy Mapping Infrastructure", "url": "http:\/\/services.ga.gov.au\/site_3\/rest\/services\/Electricity_Infrastructure\/MapServer" }, "geometry": { "type": "Point", "coordinates": [ 146.5864, -38.2564 ] } },
{ "type": "Feature", "id": 9, "properties": { "primary_fuel": "Coal", "name": "Mt Piper", "capacity_mw": 1400.0, "owner": "Delta", "source": "Australian Renewable Energy Mapping Infrastructure", "url": "http:\/\/services.ga.gov.au\/site_3\/rest\/services\/Electricity_Infrastructure\/MapServer" }, "geometry": { "type": "Point", "coordinates": [ 150.0313, -33.3589 ] } },
{ "type": "Feature", "id": 10, "properties": { "primary_fuel": "Coal", "name": "Stanwell", "capacity_mw": 1460.0, "owner": "Stanwell Corporation Ltd", "source": "Australian Renewable Energy Mapping Infrastructure", "url": "http:\/\/services.ga.gov.au\/site_3\/rest\/services\/Electricity_Infrastructure\/MapServer" }, "geometry": { "type": "Point", "coordinates": [ 150.3195, -23.5097 ] } },
{ "type": "Feature", "id": 11, "properties": { "primary_fuel": "Coal", "name": "Tarong", "capacity_mw": 1400.0, "owner": "Stanwell Corporation Ltd", "source": "Australian Renewable Energy Mapping Infrastructure", "url": "http:\/\/services.ga.gov.au\/site_3\/rest\/services\/Electricity_Infrastructure\/MapServer" }, "geometry": { "type": "Point", "coordinates": [ 151.9153, -26.7824 ] } },
{ "type": "Feature", "id": 12, "properties": { "primary_fuel": "Coal", "name": "Vales Point B", "capacity_mw": 1360.0, "owner": "Delta Electricity", "source": "Australian Renewable Energy Mapping Infrastructure", "url": "http:\/\/services.ga.gov.au\/site_3\/rest\/services\/Electricity_Infrastructure\/MapServer" }, "geometry": { "type": "Point", "coordinates": [ 151.5431, -33.1607 ] } },
{ "type": "Feature", "id": 13, "properties": { "primary_fuel": "Coal", "name": "Yallourn", "capacity_mw": 1480.0, "owner": "TRUenergy", "source": "Australian Renewable Energy Mapping Infrastructure", "url": "http:\/\/services.ga.gov.au\/site_3\/rest\/services\/Electricity_Infrastructure\/MapServer" }, "geometry": { "type": "Point", "coordinates": [ 146.3428, -38.177 ] } },
{ "type": "Feature", "id": 14, "properties": { "primary_fuel": "Coal", "name": "Maritsa Itzok-2 power station", "capacity_mw": 1602.0, "owner": "TEC Maritsa Iztok 2 EAD", "source": "GCPT", "url": "https:\/\/endcoal.org\/global-coal-plant-tracker\/" }, "geometry": { "type": "Point", "coordinates": [ 26.134, 42.2541 ] } },
{ "type": "Feature", "id": 15, "properties": { "primary_fuel": "Coal", "name": "Genesee", "capacity_mw": 1376.0, "owner": "Capital Power & TransAlta", "source": "Natural Resources Canada", "url": "http:\/\/ftp.maps.canada.ca\/pub\/nacei_cnaie\/energy_infrastructure\/PowerPlantsAllGE100MW_NorthAmerica_201708.xlsx" }, "geometry": { "type": "Point", "coordinates": [ -114.3049, 53.3446 ] } },
{ "type": "Feature", "id": 16, "properties": { "primary_fuel": "Coal", "name": "Keephills", "capacity_mw": 1253.0, "owner": "Capital Power (50%) \/ TransAlta (50%)", "source": "Natural Resources Canada", "url": "http:\/\/ftp.maps.canada.ca\/pub\/nacei_cnaie\/energy_infrastructure\/PowerPlantsAllGE100MW_NorthAmerica_201708.xlsx" }, "geometry": { "type": "Point", "coordinates": [ -114.4501, 53.4487 ] } },
{ "type": "Feature", "id": 17, "properties": { "primary_fuel": "Coal", "name": "Sundance", "capacity_mw": 2141.0, "owner": "TransAlta", "source": "Natural Resources Canada", "url": "http:\/\/ftp.maps.canada.ca\/pub\/nacei_cnaie\/energy_infrastructure\/PowerPlantsAllGE100MW_NorthAmerica_201708.xlsx" }, "geometry": { "type": "Point", "coordinates": [ -114.5569, 53.5075 ] } },
{ "type": "Feature", "id": 18, "properties": { "primary_fuel": "Coal", "name": "TERMOELECTRICA TOCOPILLA (U12)", "capacity_mw": 1001.7, "owner": "E-CL", "source": "Energía Abierta", "url": "http:\/\/energiaabierta.cl\/electricidad\/" }, "geometry": { "type": "Point", "coordinates": [ -70.2126, -22.091 ] } },
{ "type": "Feature", "id": 19, "properties": { "primary_fuel": "Coal", "name": "Anhui Bengbu power station", "capacity_mw": 2520.0, "owner": "Anhui Bengbu Power Station", "source": "GCPT", "url": "https:\/\/endcoal.org\/global-coal-plant-tracker\/" }, "geometry": { "type": "Point", "coordinates": [ 117.115, 32.7845 ] } },
{ "type": "Feature", "id": 20, "properties": { "primary_fuel": "Coal", "name": "Anhui Xuancheng power station", "capacity_mw": 1320.0, "owner": "SDIC Huajing Power Holdings Co Ltd", "source": "GCPT", "url": "https:\/\/endcoal.org\/global-coal-plant-tracker\/" }, "geometry": { "type": "Point", "coordinates": [ 118.8648, 30.8695 ] } },
{ "type": "Feature", "id": 21, "properties": { "primary_fuel": "Coal", "name": "Anwen Songzao power station", "capacity_mw": 1620.0, "owner": "Chongqing Energy Investment Group", "source": "GCPT", "url": "https:\/\/endcoal.org\/global-coal-plant-tracker\/" }, "geometry": { "type": "Point", "coordinates": [ 106.7531, 28.6411 ] } },
{ "type": "Feature", "id": 22, "properties": { "primary_fuel": "Coal", "name": "Baise Coal", "capacity_mw": 1320.0, "owner": "China Huaneng Group Corporation (CHNG)", "source": "Industry About", "url": "https:\/\/industryabout.com\/country-territories-3\/1705-china\/fossil-fuels-energy\/25666-baise-coal-power-plant" }, "geometry": { "type": "Point", "coordinates": [ 106.8155, 23.7882 ] } },
{ "type": "Feature", "id": 23, "properties": { "primary_fuel": "Coal", "name": "Baoshan Works power station", "capacity_mw": 1050.0, "owner": "", "source": "GCPT", "url": "https:\/\/endcoal.org\/global-coal-plant-tracker\/" }, "geometry": { "type": "Point", "coordinates": [ 121.4361, 31.4424 ] } },
{ "type": "Feature", "id": 24, "properties": { "primary_fuel": "Coal", "name": "Baotou Aluminum power station", "capacity_mw": 1360.0, "owner": "Baotou Aluminum", "source": "GCPT", "url": "https:\/\/endcoal.org\/global-coal-plant-tracker\/" }, "geometry": { "type": "Point", "coordinates": [ 110.1484, 40.5572 ] } },
{ "type": "Feature", "id": 25, "properties": { "primary_fuel": "Coal", "name": "Baotou East Hope power station", "capacity_mw": 1320.0, "owner": "Baotou Rare Earth & Aluminum Co Ltd", "source": "GCPT", "url": "https:\/\/endcoal.org\/global-coal-plant-tracker\/" }, "geometry": { "type": "Point", "coordinates": [ 109.7828, 40.5956 ] } },
{ "type": "Feature", "id": 26, "properties": { "primary_fuel": "Coal", "name": "Baotou Hexi power station", "capacity_mw": 1200.0, "owner": "China Huadian Group Corporation", "source": "GCPT", "url": "https:\/\/endcoal.org\/global-coal-plant-tracker\/" }, "geometry": { "type": "Point", "coordinates": [ 109.79, 40.5694 ] } },
{ "type": "Feature", "id": 27, "properties": { "primary_fuel": "Coal", "name": "Bayanhua Jinshan power station", "capacity_mw": 1200.0, "owner": "Jinshan Energy Co Ltd", "source": "GCPT", "url": "https:\/\/endcoal.org\/global-coal-plant-tracker\/" }, "geometry": { "type": "Point", "coordinates": [ 118.7082, 44.9317 ] } },
{ "type": "Feature", "id": 28, "properties": { "primary_fuel": "Coal", "name": "Binhai Port Unit 1", "capacity_mw": 2000.0, "owner": "", "source": "SPIC", "url": "http:\/\/www.spic.com.cn\/mtbd\/201711\/t20171121_282894.htm" }, "geometry": { "type": "Point", "coordinates": [ 120.2469, 34.3071 ] } },
{ "type": "Feature", "id": 29, "properties": { "primary_fuel": "Coal", "name": "Binzhou - Huji 1-4 Coal", "capacity_mw": 1320.0, "owner": "Weiqiao Huimin New Material Co Ltd", "source": "Industry About", "url": "https:\/\/industryabout.com\/country-territories-3\/1705-china\/fossil-fuels-energy\/33449-binzhou-huji-1-4-coal-power-plant" }, "geometry": { "type": "Point", "coordinates": [ 117.7784, 37.3495 ] } },
{ "type": "Feature", "id": 30, "properties": { "primary_fuel": "Coal", "name": "Bohe Coal", "capacity_mw": 2000.0, "owner": "Guangdong Electric Power Development Co Ltd", "source": "Industry About", "url": "https:\/\/industryabout.com\/country-territories-3\/1705-china\/fossil-fuels-energy\/25866-bohe-coal-power-plant" }, "geometry": { "type": "Point", "coordinates": [ 112.1079, 22.9657 ] } },
{ "type": "Feature", "id": 31, "properties": { "primary_fuel": "Coal", "name": "Bulian power station", "capacity_mw": 1320.0, "owner": "China Guodian Group Corporation", "source": "GCPT", "url": "https:\/\/endcoal.org\/global-coal-plant-tracker\/" }, "geometry": { "type": "Point", "coordinates": [ 109.9682, 39.3012 ] } },
{ "type": "Feature", "id": 32, "properties": { "primary_fuel": "Coal", "name": "CKI Lamma power station", "capacity_mw": 2500.0, "owner": "Hongkong Electric Company (HKC)", "source": "GCPT", "url": "https:\/\/endcoal.org\/global-coal-plant-tracker\/" }, "geometry": { "type": "Point", "coordinates": [ 114.1082, 22.2185 ] } },
{ "type": "Feature", "id": 33, "properties": { "primary_fuel": "Coal", "name": "CPI Baicheng power station", "capacity_mw": 1320.0, "owner": "CPI Jilin Power Share Co Ltd", "source": "GCPT", "url": "https:\/\/endcoal.org\/global-coal-plant-tracker\/" }, "geometry": { "type": "Point", "coordinates": [ 122.7759, 45.5261 ] } },
{ "type": "Feature", "id": 34, "properties": { "primary_fuel": "Coal", "name": "CPI Changshu-1 power station", "capacity_mw": 3320.0, "owner": "China Power Investment Corporation (CPI)", "source": "GCPT", "url": "https:\/\/endcoal.org\/global-coal-plant-tracker\/" }, "geometry": { "type": "Point", "coordinates": [ 120.9731, 31.7563 ] } },
{ "type": "Feature", "id": 35, "properties": { "primary_fuel": "Coal", "name": "CPI Chifeng Daban power station", "capacity_mw": 1200.0, "owner": "Mengdong Energy Group Co Ltd", "source": "GCPT", "url": "https:\/\/endcoal.org\/global-coal-plant-tracker\/" }, "geometry": { "type": "Point", "coordinates": [ 118.7119, 43.5893 ] } },
{ "type": "Feature", "id": 36, "properties": { "primary_fuel": "Coal", "name": "CPI Dabieshan power station", "capacity_mw": 1200.0, "owner": "China Power Investment Corporation (CPI)", "source": "GCPT", "url": "https:\/\/endcoal.org\/global-coal-plant-tracker\/" }, "geometry": { "type": "Point", "coordinates": [ 114.8922, 31.1419 ] } },
{ "type": "Feature", "id": 37, "properties": { "primary_fuel": "Coal", "name": "CPI Huolinhe power station", "capacity_mw": 1200.0, "owner": "Hangzhou Jinjiang Group", "source": "GCPT", "url": "https:\/\/endcoal.org\/global-coal-plant-tracker\/" }, "geometry": { "type": "Point", "coordinates": [ 119.5386, 45.4616 ] } },
{ "type": "Feature", "id": 38, "properties": { "primary_fuel": "Coal", "name": "CPI Ningxia Zaoquan power station", "capacity_mw": 1320.0, "owner": "China Power Investment and Ningxia Power Generation Co.", "source": "GCPT", "url": "https:\/\/endcoal.org\/global-coal-plant-tracker\/" }, "geometry": { "type": "Point", "coordinates": [ 106.6058, 38.0462 ] } },
{ "type": "Feature", "id": 39, "properties": { "primary_fuel": "Coal", "name": "CPI Pingwei power station", "capacity_mw": 4540.0, "owner": "China Power Investment Corporation (CPI)", "source": "GCPT", "url": "https:\/\/endcoal.org\/global-coal-plant-tracker\/" }, "geometry": { "type": "Point", "coordinates": [ 116.9021, 32.6842 ] } },
{ "type": "Feature", "id": 40, "properties": { "primary_fuel": "Coal", "name": "CPI Qinghe power station", "capacity_mw": 1600.0, "owner": "CPI Northeast Power Co Ltd", "source": "GCPT", "url": "https:\/\/endcoal.org\/global-coal-plant-tracker\/" }, "geometry": { "type": "Point", "coordinates": [ 124.1403, 42.5299 ] } },
{ "type": "Feature", "id": 41, "properties": { "primary_fuel": "Coal", "name": "CPI Shentou power station", "capacity_mw": 1320.0, "owner": "China Power Investment Corporation (CPI)", "source": "GCPT", "url": "https:\/\/endcoal.org\/global-coal-plant-tracker\/" }, "geometry": { "type": "Point", "coordinates": [ 112.4887, 39.5508 ] } },
{ "type": "Feature", "id": 42, "properties": { "primary_fuel": "Coal", "name": "CPI Xinchang power station", "capacity_mw": 1400.0, "owner": "China Power Investment Corporation (CPI)", "source": "GCPT", "url": "https:\/\/endcoal.org\/global-coal-plant-tracker\/" }, "geometry": { "type": "Point", "coordinates": [ 115.9764, 28.8612 ] } },
{ "type": "Feature", "id": 43, "properties": { "primary_fuel": "Coal", "name": "CPI Xining power station", "capacity_mw": 1320.0, "owner": "CPI Henan Electric Power Co Ltd", "source": "GCPT", "url": "https:\/\/endcoal.org\/global-coal-plant-tracker\/" }, "geometry": { "type": "Point", "coordinates": [ 101.4936, 36.5847 ] } },
{ "type": "Feature", "id": 44, "properties": { "primary_fuel": "Coal", "name": "CR Changzhou power station", "capacity_mw": 1260.0, "owner": "Guodian Changzhou Power Co Ltd", "source": "GCPT", "url": "https:\/\/endcoal.org\/global-coal-plant-tracker\/" }, "geometry": { "type": "Point", "coordinates": [ 119.9921, 31.9576 ] } },
{ "type": "Feature", "id": 45, "properties": { "primary_fuel": "Coal", "name": "CR Liuzhi power station", "capacity_mw": 1320.0, "owner": "China Resources Power Holdings  Chongqing Energy Investment Group", "source": "GCPT", "url": "https:\/\/endcoal.org\/global-coal-plant-tracker\/" }, "geometry": { "type": "Point", "coordinates": [ 105.395, 26.3883 ] } },
{ "type": "Feature", "id": 46, "properties": { "primary_fuel": "Coal", "name": "Castle Peak power station", "capacity_mw": 4108.0, "owner": "Castle Peak Power Company Limited (CAPCO)", "source": "GCPT", "url": "https:\/\/endcoal.org\/global-coal-plant-tracker\/" }, "geometry": { "type": "Point", "coordinates": [ 113.9214, 22.376 ] } },
{ "type": "Feature", "id": 47, "properties": { "primary_fuel": "Coal", "name": "Changchun-2 power station", "capacity_mw": 1220.0, "owner": "Datang Jilin Power Generation", "source": "GCPT", "url": "https:\/\/endcoal.org\/global-coal-plant-tracker\/" }, "geometry": { "type": "Point", "coordinates": [ 125.3942, 43.8835 ] } },
{ "type": "Feature", "id": 48, "properties": { "primary_fuel": "Coal", "name": "Changde Coal", "capacity_mw": 1320.0, "owner": "Changde Huadian Power Plant", "source": "Industry About", "url": "https:\/\/industryabout.com\/country-territories-3\/1705-china\/fossil-fuels-energy\/32874-changde-coal-power-plant" }, "geometry": { "type": "Point", "coordinates": [ 111.5607, 29.197 ] } },
{ "type": "Feature", "id": 49, "properties": { "primary_fuel": "Coal", "name": "Changshu-2 power station", "capacity_mw": 1950.0, "owner": "China Resources Power Holdings Co Ltd", "source": "GCPT", "url": "https:\/\/endcoal.org\/global-coal-plant-tracker\/" }, "geometry": { "type": "Point", "coordinates": [ 120.979, 31.7578 ] } },
{ "type": "Feature", "id": 50, "properties": { "primary_fuel": "Coal", "name": "Chaoyang Yanshanhu power station", "capacity_mw": 1200.0, "owner": "CPI Northeast Power Co Ltd", "source": "GCPT", "url": "https:\/\/endcoal.org\/global-coal-plant-tracker\/" }, "geometry": { "type": "Point", "coordinates": [ 120.3194, 41.5065 ] } },
{ "type": "Feature", "id": 51, "properties": { "primary_fuel": "Coal", "name": "Chaozhou Sanbaimen power station", "capacity_mw": 3200.0, "owner": "Datang International Power Generation Company", "source": "GCPT", "url": "https:\/\/endcoal.org\/global-coal-plant-tracker\/" }, "geometry": { "type": "Point", "coordinates": [ 117.0973, 23.5655 ] } },
{ "type": "Feature", "id": 52, "properties": { "primary_fuel": "Coal", "name": "Chifeng Yuanbaoshan power station", "capacity_mw": 1800.0, "owner": "Yuanbaoshan Power Generation Co Ltd", "source": "GCPT", "url": "https:\/\/endcoal.org\/global-coal-plant-tracker\/" }, "geometry": { "type": "Point", "coordinates": [ 119.325, 42.3033 ] } },
{ "type": "Feature", "id": 53, "properties": { "primary_fuel": "Coal", "name": "Chiping Haoji power station", "capacity_mw": 1400.0, "owner": "Chiping Xinyuan Aluminum Co Ltd", "source": "GCPT", "url": "https:\/\/endcoal.org\/global-coal-plant-tracker\/" }, "geometry": { "type": "Point", "coordinates": [ 116.3336, 36.4865 ] } },
{ "type": "Feature", "id": 54, "properties": { "primary_fuel": "Coal", "name": "Chongqing Shuanghuai power station", "capacity_mw": 1920.0, "owner": "China Power Investment Corporation (CPI)", "source": "GCPT", "url": "https:\/\/endcoal.org\/global-coal-plant-tracker\/" }, "geometry": { "type": "Point", "coordinates": [ 106.5474, 30.1621 ] } },
{ "type": "Feature", "id": 55, "properties": { "primary_fuel": "Coal", "name": "Daba power station", "capacity_mw": 2520.0, "owner": "Daba Power Station", "source": "GCPT", "url": "https:\/\/endcoal.org\/global-coal-plant-tracker\/" }, "geometry": { "type": "Point", "coordinates": [ 105.9258, 37.9897 ] } },
{ "type": "Feature", "id": 56, "properties": { "primary_fuel": "Coal", "name": "Dabu Coal", "capacity_mw": 1200.0, "owner": "Guangdong Electric Power Development Co Ltd", "source": "Industry About", "url": "https:\/\/industryabout.com\/country-territories-3\/1705-china\/fossil-fuels-energy\/25867-dabu-coal-power-plant" }, "geometry": { "type": "Point", "coordinates": [ 113.5831, 24.5852 ] } },
{ "type": "Feature", "id": 57, "properties": { "primary_fuel": "Coal", "name": "Dafang power station", "capacity_mw": 1200.0, "owner": "Guizhou Dafang Power company", "source": "GCPT", "url": "https:\/\/endcoal.org\/global-coal-plant-tracker\/" }, "geometry": { "type": "Point", "coordinates": [ 105.5658, 27.1014 ] } },
{ "type": "Feature", "id": 58, "properties": { "primary_fuel": "Coal", "name": "Daihai power station", "capacity_mw": 2430.0, "owner": "Beijing Energy Investment Holding Co Ltd", "source": "GCPT", "url": "https:\/\/endcoal.org\/global-coal-plant-tracker\/" }, "geometry": { "type": "Point", "coordinates": [ 112.6674, 40.5204 ] } },
{ "type": "Feature", "id": 59, "properties": { "primary_fuel": "Coal", "name": "Dalate power station", "capacity_mw": 3180.0, "owner": "North United Power Co Ltd", "source": "GCPT", "url": "https:\/\/endcoal.org\/global-coal-plant-tracker\/" }, "geometry": { "type": "Point", "coordinates": [ 109.997, 40.367 ] } },
{ "type": "Feature", "id": 60, "properties": { "primary_fuel": "Coal", "name": "Datang Anyang-2 power station", "capacity_mw": 1240.0, "owner": "Anyang 2 Power Station", "source": "GCPT", "url": "https:\/\/endcoal.org\/global-coal-plant-tracker\/" }, "geometry": { "type": "Point", "coordinates": [ 114.2758, 36.1195 ] } },
{ "type": "Feature", "id": 61, "properties": { "primary_fuel": "Coal", "name": "Datang Binchang power station", "capacity_mw": 1260.0, "owner": "Datang Shaanxi Power Generation Co Ltd", "source": "GCPT", "url": "https:\/\/endcoal.org\/global-coal-plant-tracker\/" }, "geometry": { "type": "Point", "coordinates": [ 107.9315, 35.1359 ] } },
{ "type": "Feature", "id": 62, "properties": { "primary_fuel": "Coal", "name": "Datang Fuzhou power station", "capacity_mw": 2000.0, "owner": "Datang Intl Fuzhou Power", "source": "GCPT", "url": "https:\/\/endcoal.org\/global-coal-plant-tracker\/" }, "geometry": { "type": "Point", "coordinates": [ 116.5638, 27.7855 ] } },
{ "type": "Feature", "id": 63, "properties": { "primary_fuel": "Coal", "name": "Datang Heshan power station", "capacity_mw": 1330.0, "owner": "Guangxi Guiguan Electric Power Co Ltd", "source": "GCPT", "url": "https:\/\/endcoal.org\/global-coal-plant-tracker\/" }, "geometry": { "type": "Point", "coordinates": [ 108.8669, 23.8218 ] } },
{ "type": "Feature", "id": 64, "properties": { "primary_fuel": "Coal", "name": "Datang Jingtai power station", "capacity_mw": 1320.0, "owner": "Datang Gansu Power Generation Co Ltd", "source": "GCPT", "url": "https:\/\/endcoal.org\/global-coal-plant-tracker\/" }, "geometry": { "type": "Point", "coordinates": [ 104.1681, 37.2316 ] } },
{ "type": "Feature", "id": 65, "properties": { "primary_fuel": "Coal", "name": "Datang Luoyang Shouyangshan power station", "capacity_mw": 1040.0, "owner": "Datang Shouyangshan Power Station", "source": "GCPT", "url": "https:\/\/endcoal.org\/global-coal-plant-tracker\/" }, "geometry": { "type": "Point", "coordinates": [ 112.7554, 34.7325 ] } },
{ "type": "Feature", "id": 66, "properties": { "primary_fuel": "Coal", "name": "Datang Luoyang power station", "capacity_mw": 1045.0, "owner": "Datang Luoyang Power Station", "source": "GCPT", "url": "https:\/\/endcoal.org\/global-coal-plant-tracker\/" }, "geometry": { "type": "Point", "coordinates": [ 112.3777, 34.682 ] } },
{ "type": "Feature", "id": 67, "properties": { "primary_fuel": "Coal", "name": "Datang Maanshan Dangtu power station", "capacity_mw": 1320.0, "owner": "Datang International Power Generation Co Ltd", "source": "GCPT", "url": "https:\/\/endcoal.org\/global-coal-plant-tracker\/" }, "geometry": { "type": "Point", "coordinates": [ 118.4139, 31.5347 ] } },
{ "type": "Feature", "id": 68, "properties": { "primary_fuel": "Coal", "name": "Datang Matou power station", "capacity_mw": 1020.0, "owner": "Datang Matou Power Station", "source": "GCPT", "url": "https:\/\/endcoal.org\/global-coal-plant-tracker\/" }, "geometry": { "type": "Point", "coordinates": [ 114.4246, 36.4873 ] } },
{ "type": "Feature", "id": 69, "properties": { "primary_fuel": "Coal", "name": "Datang Nanjing Xiaguan-3 power station", "capacity_mw": 1320.0, "owner": "", "source": "GCPT", "url": "https:\/\/endcoal.org\/global-coal-plant-tracker\/" }, "geometry": { "type": "Point", "coordinates": [ 119.2096, 32.2127 ] } },
{ "type": "Feature", "id": 70, "properties": { "primary_fuel": "Coal", "name": "Datang Ningde power station", "capacity_mw": 2520.0, "owner": "Datang Shandong Power Generation Co Ltd", "source": "GCPT", "url": "https:\/\/endcoal.org\/global-coal-plant-tracker\/" }, "geometry": { "type": "Point", "coordinates": [ 119.7359, 26.7575 ] } },
{ "type": "Feature", "id": 71, "properties": { "primary_fuel": "Coal", "name": "Datang Qitaihe power station", "capacity_mw": 1900.0, "owner": "Datang Heilongjiang Power Generation Co Ltd", "source": "GCPT", "url": "https:\/\/endcoal.org\/global-coal-plant-tracker\/" }, "geometry": { "type": "Point", "coordinates": [ 131.0536, 45.7596 ] } },
{ "type": "Feature", "id": 72, "properties": { "primary_fuel": "Coal", "name": "Datang Sanmenxia power station", "capacity_mw": 2900.0, "owner": "Datang Sanmenxia Power Station", "source": "GCPT", "url": "https:\/\/endcoal.org\/global-coal-plant-tracker\/" }, "geometry": { "type": "Point", "coordinates": [ 111.0274, 34.6847 ] } },
{ "type": "Feature", "id": 73, "properties": { "primary_fuel": "Coal", "name": "Datang Shentou power station", "capacity_mw": 2000.0, "owner": "Shanxi Datang International Power Generation Co Ltd", "source": "GCPT", "url": "https:\/\/endcoal.org\/global-coal-plant-tracker\/" }, "geometry": { "type": "Point", "coordinates": [ 112.5333, 39.3648 ] } },
{ "type": "Feature", "id": 74, "properties": { "primary_fuel": "Coal", "name": "Datang Tuoketuo power station", "capacity_mw": 6720.0, "owner": "Tuoketuo Power Company", "source": "GCPT", "url": "https:\/\/endcoal.org\/global-coal-plant-tracker\/" }, "geometry": { "type": "Point", "coordinates": [ 111.3589, 40.1947 ] } },
{ "type": "Feature", "id": 75, "properties": { "primary_fuel": "Coal", "name": "Datang Wushashan power station", "capacity_mw": 2400.0, "owner": "Datang International Xinyu Power Generation", "source": "GCPT", "url": "https:\/\/endcoal.org\/global-coal-plant-tracker\/" }, "geometry": { "type": "Point", "coordinates": [ 121.6627, 29.505 ] } },
{ "type": "Feature", "id": 76, "properties": { "primary_fuel": "Coal", "name": "Datang Xinyang power station", "capacity_mw": 1940.0, "owner": "Datang Xinyang Power Station", "source": "GCPT", "url": "https:\/\/endcoal.org\/global-coal-plant-tracker\/" }, "geometry": { "type": "Point", "coordinates": [ 114.1406, 32.1099 ] } },
{ "type": "Feature", "id": 77, "properties": { "primary_fuel": "Coal", "name": "Datang Xutang power station", "capacity_mw": 1200.0, "owner": "Datang International Power Generation Co Ltd", "source": "GCPT", "url": "https:\/\/endcoal.org\/global-coal-plant-tracker\/" }, "geometry": { "type": "Point", "coordinates": [ 117.9318, 34.3486 ] } },
{ "type": "Feature", "id": 78, "properties": { "primary_fuel": "Coal", "name": "Datang Yungang power station", "capacity_mw": 1040.0, "owner": "Shanxi Datang International Power Generation Co Ltd", "source": "GCPT", "url": "https:\/\/endcoal.org\/global-coal-plant-tracker\/" }, "geometry": { "type": "Point", "coordinates": [ 113.2192, 40.061 ] } },
{ "type": "Feature", "id": 79, "properties": { "primary_fuel": "Coal", "name": "Datang Zhuzhou-2 power station", "capacity_mw": 1260.0, "owner": "Datang Hunan Huayin Elec Power", "source": "GCPT", "url": "https:\/\/endcoal.org\/global-coal-plant-tracker\/" }, "geometry": { "type": "Point", "coordinates": [ 113.4603, 27.2444 ] } },
{ "type": "Feature", "id": 80, "properties": { "primary_fuel": "Coal", "name": "Datong - Tashan Coal", "capacity_mw": 4520.0, "owner": "Tongmei Tashan Power Station", "source": "Industry About", "url": "https:\/\/industryabout.com\/country-territories-3\/1705-china\/fossil-fuels-energy\/33540-datong-tashan-coal-power-plant" }, "geometry": { "type": "Point", "coordinates": [ 113.0843, 39.9261 ] } },
{ "type": "Feature", "id": 81, "properties": { "primary_fuel": "Coal", "name": "Datong power station", "capacity_mw": 3990.0, "owner": "Guodian Shanxi Branch Co Ltd", "source": "GCPT", "url": "https:\/\/endcoal.org\/global-coal-plant-tracker\/" }, "geometry": { "type": "Point", "coordinates": [ 113.2933, 40.0279 ] } },
{ "type": "Feature", "id": 82, "properties": { "primary_fuel": "Coal", "name": "Dengfeng-2 power station", "capacity_mw": 1900.0, "owner": "China Resources Power Holdings Co Ltd", "source": "GCPT", "url": "https:\/\/endcoal.org\/global-coal-plant-tracker\/" }, "geometry": { "type": "Point", "coordinates": [ 113.1997, 34.3925 ] } },
{ "type": "Feature", "id": 83, "properties": { "primary_fuel": "Coal", "name": "Diandong Yuwang power station", "capacity_mw": 1200.0, "owner": "China Huaneng Group Corporation (CHNG)", "source": "GCPT", "url": "https:\/\/endcoal.org\/global-coal-plant-tracker\/" }, "geometry": { "type": "Point", "coordinates": [ 104.6172, 25.1016 ] } },
{ "type": "Feature", "id": 84, "properties": { "primary_fuel": "Coal", "name": "Diandong power station", "capacity_mw": 2400.0, "owner": "China Huaneng Group Corporation (CHNG)", "source": "GCPT", "url": "https:\/\/endcoal.org\/global-coal-plant-tracker\/" }, "geometry": { "type": "Point", "coordinates": [ 104.6826, 25.1995 ] } },
{ "type": "Feature", "id": 85, "properties": { "primary_fuel": "Coal", "name": "Dianta Coal", "capacity_mw": 1320.0, "owner": "", "source": "Industry About", "url": "https:\/\/industryabout.com\/country-territories-3\/1705-china\/fossil-fuels-energy\/33081-dianta-coal-power-plant" }, "geometry": { "type": "Point", "coordinates": [ 110.4514, 38.9728 ] } },
{ "type": "Feature", "id": 86, "properties": { "primary_fuel": "Coal", "name": "Dingzhou power station", "capacity_mw": 2520.0, "owner": "Shenhua Guohua Electric Power Corporation", "source": "GCPT", "url": "https:\/\/endcoal.org\/global-coal-plant-tracker\/" }, "geometry": { "type": "Point", "coordinates": [ 114.8434, 38.5122 ] } },
{ "type": "Feature", "id": 87, "properties": { "primary_fuel": "Coal", "name": "Douhe power station", "capacity_mw": 1300.0, "owner": "Datang Douhe Power Station", "source": "GCPT", "url": "https:\/\/endcoal.org\/global-coal-plant-tracker\/" }, "geometry": { "type": "Point", "coordinates": [ 118.2729, 39.773 ] } },
{ "type": "Feature", "id": 88, "properties": { "primary_fuel": "Coal", "name": "East Hope Metals Wucaiwan power station", "capacity_mw": 7000.0, "owner": "Xinjiang East Hope Non-Ferrous Metal Co Ltd.", "source": "GCPT", "url": "https:\/\/endcoal.org\/global-coal-plant-tracker\/" }, "geometry": { "type": "Point", "coordinates": [ 89.1138, 44.6885 ] } },
{ "type": "Feature", "id": 89, "properties": { "primary_fuel": "Coal", "name": "Fangchenggang Coal", "capacity_mw": 2580.0, "owner": "CLP Guangxi Fangchenggang Power Company Limited", "source": "CLP Group", "url": "https:\/\/www.clp.com.cn\/ouroperations\/powergeneraton\/coalfiredpowerplants\/Pages\/guangxifangchenggang.aspx?lang=en" }, "geometry": { "type": "Point", "coordinates": [ 108.3947, 21.5918 ] } },
{ "type": "Feature", "id": 90, "properties": { "primary_fuel": "Coal", "name": "Fengzhen - Jinlong Coal", "capacity_mw": 1200.0, "owner": "Beijing Energy Investment Holding Co Ltd", "source": "Industry About", "url": "https:\/\/industryabout.com\/country-territories-3\/1705-china\/fossil-fuels-energy\/33614-fengzhen-jinlong-coal-power-plant" }, "geometry": { "type": "Point", "coordinates": [ 113.155, 40.4029 ] } },
{ "type": "Feature", "id": 91, "properties": { "primary_fuel": "Coal", "name": "Fujian Hongshan power station", "capacity_mw": 3200.0, "owner": "Fujian Hongshan Thermal Power", "source": "GCPT", "url": "https:\/\/endcoal.org\/global-coal-plant-tracker\/" }, "geometry": { "type": "Point", "coordinates": [ 118.7497, 24.7277 ] } },
{ "type": "Feature", "id": 92, "properties": { "primary_fuel": "Coal", "name": "Fuxi power station", "capacity_mw": 1200.0, "owner": "China Power International Development Limited", "source": "GCPT", "url": "https:\/\/endcoal.org\/global-coal-plant-tracker\/" }, "geometry": { "type": "Point", "coordinates": [ 104.6893, 28.666 ] } },
{ "type": "Feature", "id": 93, "properties": { "primary_fuel": "Coal", "name": "Fuxin power station", "capacity_mw": 1100.0, "owner": "CPI Northeast Power Co Ltd", "source": "GCPT", "url": "https:\/\/endcoal.org\/global-coal-plant-tracker\/" }, "geometry": { "type": "Point", "coordinates": [ 121.6635, 41.9976 ] } },
{ "type": "Feature", "id": 94, "properties": { "primary_fuel": "Coal", "name": "Fuyang power station", "capacity_mw": 1280.0, "owner": "China Resources Power Holdings Co Ltd", "source": "GCPT", "url": "https:\/\/endcoal.org\/global-coal-plant-tracker\/" }, "geometry": { "type": "Point", "coordinates": [ 115.8448, 33.0047 ] } },
{ "type": "Feature", "id": 95, "properties": { "primary_fuel": "Coal", "name": "Fuzhou Kemen power station", "capacity_mw": 2400.0, "owner": "Huadian Fuxin Energy Co Ltd", "source": "GCPT", "url": "https:\/\/endcoal.org\/global-coal-plant-tracker\/" }, "geometry": { "type": "Point", "coordinates": [ 119.7621, 26.3736 ] } },
{ "type": "Feature", "id": 96, "properties": { "primary_fuel": "Coal", "name": "GEPIC Jinchang power station", "capacity_mw": 1320.0, "owner": "GEPIC Jinchang Power Station", "source": "GCPT", "url": "https:\/\/endcoal.org\/global-coal-plant-tracker\/" }, "geometry": { "type": "Point", "coordinates": [ 102.0968, 38.3784 ] } },
{ "type": "Feature", "id": 97, "properties": { "primary_fuel": "Coal", "name": "Ganneng Fengcheng power station", "capacity_mw": 1400.0, "owner": "", "source": "GCPT", "url": "https:\/\/endcoal.org\/global-coal-plant-tracker\/" }, "geometry": { "type": "Point", "coordinates": [ 115.7097, 28.1997 ] } },
{ "type": "Feature", "id": 98, "properties": { "primary_fuel": "Coal", "name": "Gansu Chongxin power station", "capacity_mw": 1320.0, "owner": "Power Construction Corporation of China (PowerChina)", "source": "GCPT", "url": "https:\/\/endcoal.org\/global-coal-plant-tracker\/" }, "geometry": { "type": "Point", "coordinates": [ 106.9196, 35.2796 ] } },
{ "type": "Feature", "id": 99, "properties": { "primary_fuel": "Coal", "name": "Guangan power station", "capacity_mw": 2400.0, "owner": "China Huadian Group Corporation", "source": "GCPT", "url": "https:\/\/endcoal.org\/global-coal-plant-tracker\/" }, "geometry": { "type": "Point", "coordinates": [ 106.8256, 30.5288 ] } },
{ "type": "Feature", "id": 100, "properties": { "primary_fuel": "Coal", "name": "Guangdong Huilai power station", "capacity_mw": 3200.0, "owner": "Guangdong Yudean Group Co Ltd", "source": "GCPT", "url": "https:\/\/endcoal.org\/global-coal-plant-tracker\/" }, "geometry": { "type": "Point", "coordinates": [ 116.5468, 23.0056 ] } },
{ "type": "Feature", "id": 101, "properties": { "primary_fuel": "Coal", "name": "Guangdong Huizhou Pinghai power station", "capacity_mw": 2000.0, "owner": "Guangdong Electric Power Development Co Ltd", "source": "GCPT", "url": "https:\/\/endcoal.org\/global-coal-plant-tracker\/" }, "geometry": { "type": "Point", "coordinates": [ 114.7419, 22.6059 ] } },
{ "type": "Feature", "id": 102, "properties": { "primary_fuel": "Coal", "name": "Guangdong Jinwan power station", "capacity_mw": 1200.0, "owner": "Guangdong Electric Power Development Co Ltd", "source": "GCPT", "url": "https:\/\/endcoal.org\/global-coal-plant-tracker\/" }, "geometry": { "type": "Point", "coordinates": [ 113.1797, 21.9691 ] } },
{ "type": "Feature", "id": 103, "properties": { "primary_fuel": "Coal", "name": "Guangdong Shajiao power complex", "capacity_mw": 3970.0, "owner": "Guangdong Guanghope Power Co Ltd", "source": "GCPT", "url": "https:\/\/endcoal.org\/global-coal-plant-tracker\/" }, "geometry": { "type": "Point", "coordinates": [ 113.6807, 22.7489 ] } },
{ "type": "Feature", "id": 104, "properties": { "primary_fuel": "Coal", "name": "Guangdong Shaoguan power station", "capacity_mw": 1800.0, "owner": "Shaoguan Yuejiang Power Ltd", "source": "GCPT", "url": "https:\/\/endcoal.org\/global-coal-plant-tracker\/" }, "geometry": { "type": "Point", "coordinates": [ 113.5831, 24.5852 ] } },
{ "type": "Feature", "id": 105, "properties": { "primary_fuel": "Coal", "name": "Guangzhou Zhujiang power station", "capacity_mw": 1280.0, "owner": "Guangzhou Pearl River Power Co", "source": "GCPT", "url": "https:\/\/endcoal.org\/global-coal-plant-tracker\/" }, "geometry": { "type": "Point", "coordinates": [ 113.5678, 22.8141 ] } },
{ "type": "Feature", "id": 106, "properties": { "primary_fuel": "Coal", "name": "Guixi power station", "capacity_mw": 1880.0, "owner": "China Power Investment Corporation (CPI)", "source": "GCPT", "url": "https:\/\/endcoal.org\/global-coal-plant-tracker\/" }, "geometry": { "type": "Point", "coordinates": [ 117.2231, 28.2891 ] } },
{ "type": "Feature", "id": 107, "properties": { "primary_fuel": "Coal", "name": "Guizhou Faer power station", "capacity_mw": 2400.0, "owner": "Guangdong Yudean Group Company Limited", "source": "GCPT", "url": "https:\/\/endcoal.org\/global-coal-plant-tracker\/" }, "geometry": { "type": "Point", "coordinates": [ 104.7706, 26.3251 ] } },
{ "type": "Feature", "id": 108, "properties": { "primary_fuel": "Coal", "name": "Guodian Anshun power station", "capacity_mw": 1200.0, "owner": "Guizhou CLP Power Co (Anshun-1); China Guodian Corp (Anshun-2)", "source": "GCPT", "url": "https:\/\/endcoal.org\/global-coal-plant-tracker\/" }, "geometry": { "type": "Point", "coordinates": [ 105.6866, 26.2203 ] } },
{ "type": "Feature", "id": 109, "properties": { "primary_fuel": "Coal", "name": "Guodian Baoji-2 power station", "capacity_mw": 2520.0, "owner": "China Guodian Group Corporation", "source": "GCPT", "url": "https:\/\/endcoal.org\/global-coal-plant-tracker\/" }, "geometry": { "type": "Point", "coordinates": [ 107.2176, 34.498 ] } },
{ "type": "Feature", "id": 110, "properties": { "primary_fuel": "Coal", "name": "Guodian Baoqing power station", "capacity_mw": 1320.0, "owner": "China Guodian Group Corporation", "source": "GCPT", "url": "https:\/\/endcoal.org\/global-coal-plant-tracker\/" }, "geometry": { "type": "Point", "coordinates": [ 111.3966, 27.2021 ] } },
{ "type": "Feature", "id": 111, "properties": { "primary_fuel": "Coal", "name": "Guodian Beilun power station", "capacity_mw": 5060.0, "owner": "China Guodian Group Corporation", "source": "GCPT", "url": "https:\/\/endcoal.org\/global-coal-plant-tracker\/" }, "geometry": { "type": "Point", "coordinates": [ 121.8131, 29.9433 ] } },
{ "type": "Feature", "id": 112, "properties": { "primary_fuel": "Coal", "name": "Guodian Dananhu power station", "capacity_mw": 1320.0, "owner": "China Guodian Group Corporation", "source": "GCPT", "url": "https:\/\/endcoal.org\/global-coal-plant-tracker\/" }, "geometry": { "type": "Point", "coordinates": [ 93.1914, 42.3202 ] } },
{ "type": "Feature", "id": 113, "properties": { "primary_fuel": "Coal", "name": "Guodian Duyun power station", "capacity_mw": 1200.0, "owner": "China Guodian Corporation", "source": "GCPT", "url": "https:\/\/endcoal.org\/global-coal-plant-tracker\/" }, "geometry": { "type": "Point", "coordinates": [ 107.5429, 26.6304 ] } },
{ "type": "Feature", "id": 114, "properties": { "primary_fuel": "Coal", "name": "Guodian Feixian power station", "capacity_mw": 1300.0, "owner": "China Guodian Group Corporation", "source": "GCPT", "url": "https:\/\/endcoal.org\/global-coal-plant-tracker\/" }, "geometry": { "type": "Point", "coordinates": [ 117.9057, 35.3197 ] } },
{ "type": "Feature", "id": 115, "properties": { "primary_fuel": "Coal", "name": "Guodian Huangjinbu power station", "capacity_mw": 1300.0, "owner": "China Guodian Group Corporation", "source": "GCPT", "url": "https:\/\/endcoal.org\/global-coal-plant-tracker\/" }, "geometry": { "type": "Point", "coordinates": [ 116.8603, 28.4508 ] } },
{ "type": "Feature", "id": 116, "properties": { "primary_fuel": "Coal", "name": "Guodian Jiangyin power station", "capacity_mw": 1200.0, "owner": "Guodian Fujian Power Co Ltd", "source": "GCPT", "url": "https:\/\/endcoal.org\/global-coal-plant-tracker\/" }, "geometry": { "type": "Point", "coordinates": [ 119.3394, 25.4393 ] } },
{ "type": "Feature", "id": 117, "properties": { "primary_fuel": "Coal", "name": "Guodian Jilin power station", "capacity_mw": 1300.0, "owner": "Guodian Longhua Power Co Ltd", "source": "GCPT", "url": "https:\/\/endcoal.org\/global-coal-plant-tracker\/" }, "geometry": { "type": "Point", "coordinates": [ 124.0519, 47.3783 ] } },
{ "type": "Feature", "id": 118, "properties": { "primary_fuel": "Coal", "name": "Guodian Jingmen power station", "capacity_mw": 1200.0, "owner": "China Guodian Group Corporation", "source": "GCPT", "url": "https:\/\/endcoal.org\/global-coal-plant-tracker\/" }, "geometry": { "type": "Point", "coordinates": [ 112.2316, 31.0371 ] } },
{ "type": "Feature", "id": 119, "properties": { "primary_fuel": "Coal", "name": "Guodian Jiujiang power station", "capacity_mw": 1360.0, "owner": "China Guodian Group Corporation", "source": "GCPT", "url": "https:\/\/endcoal.org\/global-coal-plant-tracker\/" }, "geometry": { "type": "Point", "coordinates": [ 116.0345, 29.7404 ] } },
{ "type": "Feature", "id": 120, "properties": { "primary_fuel": "Coal", "name": "Guodian Nanning power station", "capacity_mw": 1320.0, "owner": "China Guodian Group Corporation", "source": "GCPT", "url": "https:\/\/endcoal.org\/global-coal-plant-tracker\/" }, "geometry": { "type": "Point", "coordinates": [ 108.9395, 22.7891 ] } },
{ "type": "Feature", "id": 121, "properties": { "primary_fuel": "Coal", "name": "Guodian Shangqiu Minquan power station", "capacity_mw": 1260.0, "owner": "Guodian Tongling Power Generation Co Ltd", "source": "GCPT", "url": "https:\/\/endcoal.org\/global-coal-plant-tracker\/" }, "geometry": { "type": "Point", "coordinates": [ 115.2925, 34.6189 ] } },
{ "type": "Feature", "id": 122, "properties": { "primary_fuel": "Coal", "name": "Guodian Shizuishan-2 power station", "capacity_mw": 2020.0, "owner": "GD Power Development Co Ltd", "source": "GCPT", "url": "https:\/\/endcoal.org\/global-coal-plant-tracker\/" }, "geometry": { "type": "Point", "coordinates": [ 106.788, 39.2848 ] } },
{ "type": "Feature", "id": 123, "properties": { "primary_fuel": "Coal", "name": "Guodian Taizhou power station", "capacity_mw": 4000.0, "owner": "China Guodian Group Corporation", "source": "GCPT", "url": "https:\/\/endcoal.org\/global-coal-plant-tracker\/" }, "geometry": { "type": "Point", "coordinates": [ 119.9145, 32.1872 ] } },
{ "type": "Feature", "id": 124, "properties": { "primary_fuel": "Coal", "name": "Guodian Zhijin power station", "capacity_mw": 1320.0, "owner": "China Guodian Corporation", "source": "GCPT", "url": "https:\/\/endcoal.org\/global-coal-plant-tracker\/" }, "geometry": { "type": "Point", "coordinates": [ 105.8193, 26.8326 ] } },
{ "type": "Feature", "id": 125, "properties": { "primary_fuel": "Coal", "name": "Guodian Zhuanghe power station", "capacity_mw": 1200.0, "owner": "China Guodian Group Corporation", "source": "GCPT", "url": "https:\/\/endcoal.org\/global-coal-plant-tracker\/" }, "geometry": { "type": "Point", "coordinates": [ 123.2059, 39.6766 ] } },
{ "type": "Feature", "id": 126, "properties": { "primary_fuel": "Coal", "name": "Guohua Hulunbeier power station", "capacity_mw": 1200.0, "owner": "Inner Mongolia Guohua Hulunbeier", "source": "GCPT", "url": "https:\/\/endcoal.org\/global-coal-plant-tracker\/" }, "geometry": { "type": "Point", "coordinates": [ 119.7207, 49.3476 ] } },
{ "type": "Feature", "id": 127, "properties": { "primary_fuel": "Coal", "name": "Guohua Shouguang power station", "capacity_mw": 2000.0, "owner": "Shenhua Guohua Power", "source": "GCPT", "url": "https:\/\/endcoal.org\/global-coal-plant-tracker\/" }, "geometry": { "type": "Point", "coordinates": [ 118.9069, 37.2697 ] } },
{ "type": "Feature", "id": 128, "properties": { "primary_fuel": "Coal", "name": "Guohua Taicang power station", "capacity_mw": 1260.0, "owner": "Shenhua Guohua Electric Power Corporation", "source": "GCPT", "url": "https:\/\/endcoal.org\/global-coal-plant-tracker\/" }, "geometry": { "type": "Point", "coordinates": [ 121.2556, 31.5877 ] } },
{ "type": "Feature", "id": 129, "properties": { "primary_fuel": "Coal", "name": "Guohua Taishan power station", "capacity_mw": 5000.0, "owner": "Shenhua Guohua Electric Power Corporation", "source": "GCPT", "url": "https:\/\/endcoal.org\/global-coal-plant-tracker\/" }, "geometry": { "type": "Point", "coordinates": [ 112.9228, 21.8664 ] } },
{ "type": "Feature", "id": 130, "properties": { "primary_fuel": "Coal", "name": "Guohua Xuzhou power station", "capacity_mw": 2000.0, "owner": "Shenhua Guohua Electric Power Corporation", "source": "GCPT", "url": "https:\/\/endcoal.org\/global-coal-plant-tracker\/" }, "geometry": { "type": "Point", "coordinates": [ 117.256, 34.3858 ] } },
{ "type": "Feature", "id": 131, "properties": { "primary_fuel": "Coal", "name": "Hancheng power station", "capacity_mw": 2400.0, "owner": "Datang Shaanxi Power Generation Co Ltd", "source": "GCPT", "url": "https:\/\/endcoal.org\/global-coal-plant-tracker\/" }, "geometry": { "type": "Point", "coordinates": [ 110.5557, 35.6002 ] } },
{ "type": "Feature", "id": 132, "properties": { "primary_fuel": "Coal", "name": "Hanchuan power station", "capacity_mw": 3260.0, "owner": "Guodian Changyuan Electric Power Co Ltd", "source": "GCPT", "url": "https:\/\/endcoal.org\/global-coal-plant-tracker\/" }, "geometry": { "type": "Point", "coordinates": [ 113.9173, 30.6565 ] } },
{ "type": "Feature", "id": 133, "properties": { "primary_fuel": "Coal", "name": "Hanfeng power station", "capacity_mw": 1320.0, "owner": "China Huaneng Group Corporation (CHNG)", "source": "GCPT", "url": "https:\/\/endcoal.org\/global-coal-plant-tracker\/" }, "geometry": { "type": "Point", "coordinates": [ 114.1523, 36.4719 ] } },
{ "type": "Feature", "id": 134, "properties": { "primary_fuel": "Coal", "name": "Hebei Longshan power station", "capacity_mw": 1200.0, "owner": "Hebei Longshan Power Station", "source": "GCPT", "url": "https:\/\/endcoal.org\/global-coal-plant-tracker\/" }, "geometry": { "type": "Point", "coordinates": [ 113.6916, 36.5976 ] } },
{ "type": "Feature", "id": 135, "properties": { "primary_fuel": "Coal", "name": "Hebi Fenghe power station", "capacity_mw": 1800.0, "owner": "Hebi Fenghe Power Generation Co Ltd", "source": "GCPT", "url": "https:\/\/endcoal.org\/global-coal-plant-tracker\/" }, "geometry": { "type": "Point", "coordinates": [ 114.1798, 35.8512 ] } },
{ "type": "Feature", "id": 136, "properties": { "primary_fuel": "Coal", "name": "Hefei power station", "capacity_mw": 1260.0, "owner": "Anhui Hefei United Power Generation Ltd", "source": "GCPT", "url": "https:\/\/endcoal.org\/global-coal-plant-tracker\/" }, "geometry": { "type": "Point", "coordinates": [ 117.2521, 31.9137 ] } },
{ "type": "Feature", "id": 137, "properties": { "primary_fuel": "Coal", "name": "Hejin power station", "capacity_mw": 1300.0, "owner": "Zhangze Power", "source": "GCPT", "url": "https:\/\/endcoal.org\/global-coal-plant-tracker\/" }, "geometry": { "type": "Point", "coordinates": [ 110.6558, 35.6131 ] } },
{ "type": "Feature", "id": 138, "properties": { "primary_fuel": "Coal", "name": "Henan Heqi power station", "capacity_mw": 1320.0, "owner": "Henan Investment Group Co Ltd", "source": "GCPT", "url": "https:\/\/endcoal.org\/global-coal-plant-tracker\/" }, "geometry": { "type": "Point", "coordinates": [ 114.1855, 35.7214 ] } },
{ "type": "Feature", "id": 139, "properties": { "primary_fuel": "Coal", "name": "Henan Xinmi power station", "capacity_mw": 2700.0, "owner": "Beijing Sanjili Energy Co Ltd", "source": "GCPT", "url": "https:\/\/endcoal.org\/global-coal-plant-tracker\/" }, "geometry": { "type": "Point", "coordinates": [ 113.5986, 34.5 ] } },
{ "type": "Feature", "id": 140, "properties": { "primary_fuel": "Coal", "name": "Henglian Wucaiwan power station", "capacity_mw": 1320.0, "owner": "Xinjiang Henglian Energy Co", "source": "GCPT", "url": "https:\/\/endcoal.org\/global-coal-plant-tracker\/" }, "geometry": { "type": "Point", "coordinates": [ 89.1977, 44.7896 ] } },
{ "type": "Feature", "id": 141, "properties": { "primary_fuel": "Coal", "name": "Heshuyuan power station", "capacity_mw": 1470.0, "owner": "Guangdong Baolihua New Energy Co Ltd", "source": "GCPT", "url": "https:\/\/endcoal.org\/global-coal-plant-tracker\/" }, "geometry": { "type": "Point", "coordinates": [ 116.2608, 24.3924 ] } },
{ "type": "Feature", "id": 142, "properties": { "primary_fuel": "Coal", "name": "Heyuan power station", "capacity_mw": 1244.0, "owner": "Shenzhen Energy Group Co Ltd", "source": "GCPT", "url": "https:\/\/endcoal.org\/global-coal-plant-tracker\/" }, "geometry": { "type": "Point", "coordinates": [ 114.64, 23.567 ] } },
{ "type": "Feature", "id": 143, "properties": { "primary_fuel": "Coal", "name": "Heze Huarun power station", "capacity_mw": 1200.0, "owner": "China Resources Power Holdings Co Ltd", "source": "GCPT", "url": "https:\/\/endcoal.org\/global-coal-plant-tracker\/" }, "geometry": { "type": "Point", "coordinates": [ 115.686, 35.2526 ] } },
{ "type": "Feature", "id": 144, "properties": { "primary_fuel": "Coal", "name": "Heze power station", "capacity_mw": 1510.0, "owner": "China Guodian Group Corporation", "source": "GCPT", "url": "https:\/\/endcoal.org\/global-coal-plant-tracker\/" }, "geometry": { "type": "Point", "coordinates": [ 115.5335, 35.2407 ] } },
{ "type": "Feature", "id": 145, "properties": { "primary_fuel": "Coal", "name": "Hezhou power station", "capacity_mw": 2090.0, "owner": "China Resources Power Holdings Co Ltd", "source": "GCPT", "url": "https:\/\/endcoal.org\/global-coal-plant-tracker\/" }, "geometry": { "type": "Point", "coordinates": [ 111.3464, 24.7361 ] } },
{ "type": "Feature", "id": 146, "properties": { "primary_fuel": "Coal", "name": "Hongjun Aluminum power station", "capacity_mw": 1800.0, "owner": "Huomei Hongjun Aluminum & Power Co Ltd", "source": "GCPT", "url": "https:\/\/endcoal.org\/global-coal-plant-tracker\/" }, "geometry": { "type": "Point", "coordinates": [ 119.6545, 45.5 ] } },
{ "type": "Feature", "id": 147, "properties": { "primary_fuel": "Coal", "name": "Houshi power station", "capacity_mw": 4200.0, "owner": "Huayang Electric Power Co Ltd", "source": "GCPT", "url": "https:\/\/endcoal.org\/global-coal-plant-tracker\/" }, "geometry": { "type": "Point", "coordinates": [ 118.1261, 24.3031 ] } },
{ "type": "Feature", "id": 148, "properties": { "primary_fuel": "Coal", "name": "Huadian Baotou Tuyou power station", "capacity_mw": 1320.0, "owner": "China Huadian Group Corporation", "source": "GCPT", "url": "https:\/\/endcoal.org\/global-coal-plant-tracker\/" }, "geometry": { "type": "Point", "coordinates": [ 110.6228, 40.5836 ] } },
{ "type": "Feature", "id": 149, "properties": { "primary_fuel": "Coal", "name": "Huadian Changde power station", "capacity_mw": 1320.0, "owner": "Huadian", "source": "GCPT", "url": "https:\/\/endcoal.org\/global-coal-plant-tracker\/" }, "geometry": { "type": "Point", "coordinates": [ 111.7, 29.031 ] } },
{ "type": "Feature", "id": 150, "properties": { "primary_fuel": "Coal", "name": "Huadian Changsha power station", "capacity_mw": 1200.0, "owner": "Huadian Power International Company Limited", "source": "GCPT", "url": "https:\/\/endcoal.org\/global-coal-plant-tracker\/" }, "geometry": { "type": "Point", "coordinates": [ 112.7985, 28.4877 ] } },
{ "type": "Feature", "id": 151, "properties": { "primary_fuel": "Coal", "name": "Huadian Fengjie power station", "capacity_mw": 1200.0, "owner": "Huadian Power International Corporation Limited", "source": "GCPT", "url": "https:\/\/endcoal.org\/global-coal-plant-tracker\/" }, "geometry": { "type": "Point", "coordinates": [ 109.4473, 31.1188 ] } },
{ "type": "Feature", "id": 152, "properties": { "primary_fuel": "Coal", "name": "Huadian Fulaerji-2 power station", "capacity_mw": 1200.0, "owner": "Huadian Power International Company Limited", "source": "GCPT", "url": "https:\/\/endcoal.org\/global-coal-plant-tracker\/" }, "geometry": { "type": "Point", "coordinates": [ 123.5848, 47.1656 ] } },
{ "type": "Feature", "id": 153, "properties": { "primary_fuel": "Coal", "name": "Huadian Gongxian power station", "capacity_mw": 1200.0, "owner": "China Huadian Group Corporation", "source": "GCPT", "url": "https:\/\/endcoal.org\/global-coal-plant-tracker\/" }, "geometry": { "type": "Point", "coordinates": [ 104.6697, 28.2713 ] } },
{ "type": "Feature", "id": 154, "properties": { "primary_fuel": "Coal", "name": "Huadian Guigang power station", "capacity_mw": 1200.0, "owner": "China Huadian Group Corporation", "source": "GCPT", "url": "https:\/\/endcoal.org\/global-coal-plant-tracker\/" }, "geometry": { "type": "Point", "coordinates": [ 109.7656, 23.1128 ] } },
{ "type": "Feature", "id": 155, "properties": { "primary_fuel": "Coal", "name": "Huadian Harbin-3 power station", "capacity_mw": 1640.0, "owner": "Huadian Power International Company Limited", "source": "GCPT", "url": "https:\/\/endcoal.org\/global-coal-plant-tracker\/" }, "geometry": { "type": "Point", "coordinates": [ 126.6637, 45.9656 ] } },
{ "type": "Feature", "id": 156, "properties": { "primary_fuel": "Coal", "name": "Huadian Jurong power station", "capacity_mw": 2000.0, "owner": "Huadian Power International Company Limited", "source": "GCPT", "url": "https:\/\/endcoal.org\/global-coal-plant-tracker\/" }, "geometry": { "type": "Point", "coordinates": [ 119.2494, 32.1949 ] } },
{ "type": "Feature", "id": 157, "properties": { "primary_fuel": "Coal", "name": "Huadian Laizhou power station", "capacity_mw": 2078.0, "owner": "Huadian Power International Company Limited", "source": "GCPT", "url": "https:\/\/endcoal.org\/global-coal-plant-tracker\/" }, "geometry": { "type": "Point", "coordinates": [ 120.0177, 37.4323 ] } },
{ "type": "Feature", "id": 158, "properties": { "primary_fuel": "Coal", "name": "Huadian Luan power station", "capacity_mw": 1320.0, "owner": "Huadian Power International Company Limited", "source": "GCPT", "url": "https:\/\/endcoal.org\/global-coal-plant-tracker\/" }, "geometry": { "type": "Point", "coordinates": [ 116.4914, 31.6561 ] } },
{ "type": "Feature", "id": 159, "properties": { "primary_fuel": "Coal", "name": "Huadian Ningxia Lingwu power station", "capacity_mw": 3320.0, "owner": "Huadian Power International Company Limited", "source": "GCPT", "url": "https:\/\/endcoal.org\/global-coal-plant-tracker\/" }, "geometry": { "type": "Point", "coordinates": [ 106.3463, 38.1483 ] } },
{ "type": "Feature", "id": 160, "properties": { "primary_fuel": "Coal", "name": "Huadian Shiliquan power station", "capacity_mw": 2060.0, "owner": "Huadian Power International Company Limited", "source": "GCPT", "url": "https:\/\/endcoal.org\/global-coal-plant-tracker\/" }, "geometry": { "type": "Point", "coordinates": [ 117.5731, 34.8144 ] } },
{ "type": "Feature", "id": 161, "properties": { "primary_fuel": "Coal", "name": "Huadian Suzhou power station", "capacity_mw": 1260.0, "owner": "Huadian Power International Company Limited", "source": "GCPT", "url": "https:\/\/endcoal.org\/global-coal-plant-tracker\/" }, "geometry": { "type": "Point", "coordinates": [ 116.9821, 33.8059 ] } },
{ "type": "Feature", "id": 162, "properties": { "primary_fuel": "Coal", "name": "Huadian Wangting power station", "capacity_mw": 1920.0, "owner": "Huadian Power International Company Limited", "source": "GCPT", "url": "https:\/\/endcoal.org\/global-coal-plant-tracker\/" }, "geometry": { "type": "Point", "coordinates": [ 120.4364, 31.4444 ] } },
{ "type": "Feature", "id": 163, "properties": { "primary_fuel": "Coal", "name": "Huadian Weifang power station", "capacity_mw": 2000.0, "owner": "Huadian Power International Company Limited", "source": "GCPT", "url": "https:\/\/endcoal.org\/global-coal-plant-tracker\/" }, "geometry": { "type": "Point", "coordinates": [ 119.2632, 36.6656 ] } },
{ "type": "Feature", "id": 164, "properties": { "primary_fuel": "Coal", "name": "Huadian Wuhu power station", "capacity_mw": 1320.0, "owner": "Huadian Power International Company Limited", "source": "GCPT", "url": "https:\/\/endcoal.org\/global-coal-plant-tracker\/" }, "geometry": { "type": "Point", "coordinates": [ 118.15, 31.2376 ] } },
{ "type": "Feature", "id": 165, "properties": { "primary_fuel": "Coal", "name": "Huadian Xisaishan power station", "capacity_mw": 2020.0, "owner": "China Huadian Group Corporation", "source": "GCPT", "url": "https:\/\/endcoal.org\/global-coal-plant-tracker\/" }, "geometry": { "type": "Point", "coordinates": [ 115.1803, 30.2031 ] } },
{ "type": "Feature", "id": 166, "properties": { "primary_fuel": "Coal", "name": "Huadian Zhenxiong power station", "capacity_mw": 1200.0, "owner": "Huadian Power International Company Limited", "source": "GCPT", "url": "https:\/\/endcoal.org\/global-coal-plant-tracker\/" }, "geometry": { "type": "Point", "coordinates": [ 104.9485, 27.4929 ] } },
{ "type": "Feature", "id": 167, "properties": { "primary_fuel": "Coal", "name": "Huaibei Hushan power station", "capacity_mw": 1320.0, "owner": "Datang International Power Generation", "source": "GCPT", "url": "https:\/\/endcoal.org\/global-coal-plant-tracker\/" }, "geometry": { "type": "Point", "coordinates": [ 116.8598, 33.8678 ] } },
{ "type": "Feature", "id": 168, "properties": { "primary_fuel": "Coal", "name": "Huaibei Linhuan power station", "capacity_mw": 1260.0, "owner": "Huaibei Linhuan Power Station", "source": "GCPT", "url": "https:\/\/endcoal.org\/global-coal-plant-tracker\/" }, "geometry": { "type": "Point", "coordinates": [ 116.5866, 33.6127 ] } },
{ "type": "Feature", "id": 169, "properties": { "primary_fuel": "Coal", "name": "Huaibei Pingshan power station", "capacity_mw": 1320.0, "owner": "Shenergy Company Ltd", "source": "GCPT", "url": "https:\/\/endcoal.org\/global-coal-plant-tracker\/" }, "geometry": { "type": "Point", "coordinates": [ 116.8311, 33.8339 ] } },
{ "type": "Feature", "id": 170, "properties": { "primary_fuel": "Coal", "name": "Huainan Fengtai power station", "capacity_mw": 2520.0, "owner": "Huainan Huaizhe Coal & Power", "source": "GCPT", "url": "https:\/\/endcoal.org\/global-coal-plant-tracker\/" }, "geometry": { "type": "Point", "coordinates": [ 116.6492, 32.7579 ] } },
{ "type": "Feature", "id": 171, "properties": { "primary_fuel": "Coal", "name": "Huainan Luohe power station", "capacity_mw": 2500.0, "owner": "Datang International Power Generation", "source": "GCPT", "url": "https:\/\/endcoal.org\/global-coal-plant-tracker\/" }, "geometry": { "type": "Point", "coordinates": [ 117.0753, 32.6837 ] } },
{ "type": "Feature", "id": 172, "properties": { "primary_fuel": "Coal", "name": "Huainan Tianji power station", "capacity_mw": 2580.0, "owner": "Huaihu Coal Electricity Co Ltd", "source": "GCPT", "url": "https:\/\/endcoal.org\/global-coal-plant-tracker\/" }, "geometry": { "type": "Point", "coordinates": [ 116.8134, 32.7456 ] } },
{ "type": "Feature", "id": 173, "properties": { "primary_fuel": "Coal", "name": "Huaneng Anyuan power station", "capacity_mw": 1320.0, "owner": "China Huaneng Group Corporation (CHNG)", "source": "GCPT", "url": "https:\/\/endcoal.org\/global-coal-plant-tracker\/" }, "geometry": { "type": "Point", "coordinates": [ 114.0058, 27.642 ] } },
{ "type": "Feature", "id": 174, "properties": { "primary_fuel": "Coal", "name": "Huaneng Baotou-2 power station", "capacity_mw": 1000.0, "owner": "North United Power Co Ltd", "source": "GCPT", "url": "https:\/\/endcoal.org\/global-coal-plant-tracker\/" }, "geometry": { "type": "Point", "coordinates": [ 109.8913, 40.6778 ] } },
{ "type": "Feature", "id": 175, "properties": { "primary_fuel": "Coal", "name": "Huaneng Changxing power station", "capacity_mw": 1320.0, "owner": "China Huaneng Group Corporation (CHNG)", "source": "GCPT", "url": "https:\/\/endcoal.org\/global-coal-plant-tracker\/" }, "geometry": { "type": "Point", "coordinates": [ 119.9625, 30.9144 ] } },
{ "type": "Feature", "id": 176, "properties": { "primary_fuel": "Coal", "name": "Huaneng Chaohu power station", "capacity_mw": 1200.0, "owner": "China Huaneng Group Corporation (CHNG)", "source": "GCPT", "url": "https:\/\/endcoal.org\/global-coal-plant-tracker\/" }, "geometry": { "type": "Point", "coordinates": [ 117.8225, 31.6516 ] } },
{ "type": "Feature", "id": 177, "properties": { "primary_fuel": "Coal", "name": "Huaneng Dalian power station", "capacity_mw": 1400.0, "owner": "China Huaneng Group Corporation (CHNG)", "source": "GCPT", "url": "https:\/\/endcoal.org\/global-coal-plant-tracker\/" }, "geometry": { "type": "Point", "coordinates": [ 121.7244, 39.0148 ] } },
{ "type": "Feature", "id": 178, "properties": { "primary_fuel": "Coal", "name": "Huaneng Dezhou power station", "capacity_mw": 2650.0, "owner": "Huaneng Shandong Power Co Ltd", "source": "GCPT", "url": "https:\/\/endcoal.org\/global-coal-plant-tracker\/" }, "geometry": { "type": "Point", "coordinates": [ 116.2416, 37.4493 ] } },
{ "type": "Feature", "id": 179, "properties": { "primary_fuel": "Coal", "name": "Huaneng Fuzhou power station", "capacity_mw": 2720.0, "owner": "China Huaneng Group Corporation (CHNG)", "source": "GCPT", "url": "https:\/\/endcoal.org\/global-coal-plant-tracker\/" }, "geometry": { "type": "Point", "coordinates": [ 119.4816, 25.9909 ] } },
{ "type": "Feature", "id": 180, "properties": { "primary_fuel": "Coal", "name": "Huaneng Haimen power station", "capacity_mw": 4144.0, "owner": "China Huaneng Group Corporation (CHNG)", "source": "GCPT", "url": "https:\/\/endcoal.org\/global-coal-plant-tracker\/" }, "geometry": { "type": "Point", "coordinates": [ 116.6553, 23.1899 ] } },
{ "type": "Feature", "id": 181, "properties": { "primary_fuel": "Coal", "name": "Huaneng Hainan East power station", "capacity_mw": 1400.0, "owner": "China Huaneng Group Corporation (CHNG)", "source": "GCPT", "url": "https:\/\/endcoal.org\/global-coal-plant-tracker\/" }, "geometry": { "type": "Point", "coordinates": [ 108.6364, 19.0494 ] } },
{ "type": "Feature", "id": 182, "properties": { "primary_fuel": "Coal", "name": "Huaneng Hegang power station", "capacity_mw": 1200.0, "owner": "China Huaneng Group Corporation (CHNG)", "source": "GCPT", "url": "https:\/\/endcoal.org\/global-coal-plant-tracker\/" }, "geometry": { "type": "Point", "coordinates": [ 130.299, 47.0955 ] } },
{ "type": "Feature", "id": 183, "properties": { "primary_fuel": "Coal", "name": "Huaneng Hohhot power station", "capacity_mw": 1100.0, "owner": "North United Power Co Ltd", "source": "GCPT", "url": "https:\/\/endcoal.org\/global-coal-plant-tracker\/" }, "geometry": { "type": "Point", "coordinates": [ 111.5977, 40.7934 ] } },
{ "type": "Feature", "id": 184, "properties": { "primary_fuel": "Coal", "name": "Huaneng Huaiyin power station", "capacity_mw": 1320.0, "owner": "China Huaneng Group Corporation (CHNG)", "source": "GCPT", "url": "https:\/\/endcoal.org\/global-coal-plant-tracker\/" }, "geometry": { "type": "Point", "coordinates": [ 118.9628, 33.5959 ] } },
{ "type": "Feature", "id": 185, "properties": { "primary_fuel": "Coal", "name": "Huaneng Jinggangshan power station", "capacity_mw": 1920.0, "owner": "China Huaneng Group Corporation (CHNG)", "source": "GCPT", "url": "https:\/\/endcoal.org\/global-coal-plant-tracker\/" }, "geometry": { "type": "Point", "coordinates": [ 115.0203, 27.0467 ] } },
{ "type": "Feature", "id": 186, "properties": { "primary_fuel": "Coal", "name": "Huaneng Jinling power station", "capacity_mw": 2060.0, "owner": "China Huaneng Group Corporation (CHNG)", "source": "GCPT", "url": "https:\/\/endcoal.org\/global-coal-plant-tracker\/" }, "geometry": { "type": "Point", "coordinates": [ 119.0195, 32.1716 ] } },
{ "type": "Feature", "id": 187, "properties": { "primary_fuel": "Coal", "name": "Huaneng Jiutai power station", "capacity_mw": 1340.0, "owner": "Huaneng Jilin Power Generation Co Ltd", "source": "GCPT", "url": "https:\/\/endcoal.org\/global-coal-plant-tracker\/" }, "geometry": { "type": "Point", "coordinates": [ 125.928, 44.1071 ] } },
{ "type": "Feature", "id": 188, "properties": { "primary_fuel": "Coal", "name": "Huaneng Laiwu power station", "capacity_mw": 2660.0, "owner": "Huaneng Shandong Power Co Ltd", "source": "GCPT", "url": "https:\/\/endcoal.org\/global-coal-plant-tracker\/" }, "geometry": { "type": "Point", "coordinates": [ 117.685, 36.1339 ] } },
{ "type": "Feature", "id": 189, "properties": { "primary_fuel": "Coal", "name": "Huaneng Luohuang power station", "capacity_mw": 2640.0, "owner": "China Huaneng Group Corporation (CHNG)", "source": "GCPT", "url": "https:\/\/endcoal.org\/global-coal-plant-tracker\/" }, "geometry": { "type": "Point", "coordinates": [ 106.4339, 29.3467 ] } },
{ "type": "Feature", "id": 190, "properties": { "primary_fuel": "Coal", "name": "Huaneng Luoyuan power station", "capacity_mw": 1320.0, "owner": "Huaneng Power International", "source": "GCPT", "url": "https:\/\/endcoal.org\/global-coal-plant-tracker\/" }, "geometry": { "type": "Point", "coordinates": [ 119.7643, 26.4114 ] } },
{ "type": "Feature", "id": 191, "properties": { "primary_fuel": "Coal", "name": "Huaneng Pingliang power station", "capacity_mw": 2520.0, "owner": "Huaneng Gansu Energy Development Co Ltd", "source": "GCPT", "url": "https:\/\/endcoal.org\/global-coal-plant-tracker\/" }, "geometry": { "type": "Point", "coordinates": [ 106.7871, 35.5014 ] } },
{ "type": "Feature", "id": 192, "properties": { "primary_fuel": "Coal", "name": "Huaneng Qinbei power station", "capacity_mw": 4400.0, "owner": "Huaneng Power International Ruiyang Co Ltd", "source": "GCPT", "url": "https:\/\/endcoal.org\/global-coal-plant-tracker\/" }, "geometry": { "type": "Point", "coordinates": [ 112.7162, 35.1679 ] } },
{ "type": "Feature", "id": 193, "properties": { "primary_fuel": "Coal", "name": "Huaneng Qinling power station", "capacity_mw": 1200.0, "owner": "Huaneng Shaanxi Power Co Ltd", "source": "GCPT", "url": "https:\/\/endcoal.org\/global-coal-plant-tracker\/" }, "geometry": { "type": "Point", "coordinates": [ 109.9381, 34.5333 ] } },
{ "type": "Feature", "id": 194, "properties": { "primary_fuel": "Coal", "name": "Huaneng Shangan power station", "capacity_mw": 2540.0, "owner": "China Huaneng Group Corporation (CHNG)", "source": "GCPT", "url": "https:\/\/endcoal.org\/global-coal-plant-tracker\/" }, "geometry": { "type": "Point", "coordinates": [ 114.1966, 38.057 ] } },
{ "type": "Feature", "id": 195, "properties": { "primary_fuel": "Coal", "name": "Huaneng Shangdu power station", "capacity_mw": 3720.0, "owner": "North United Power Co Ltd", "source": "GCPT", "url": "https:\/\/endcoal.org\/global-coal-plant-tracker\/" }, "geometry": { "type": "Point", "coordinates": [ 116.0293, 42.2237 ] } },
{ "type": "Feature", "id": 196, "properties": { "primary_fuel": "Coal", "name": "Huaneng Shantou power station", "capacity_mw": 1200.0, "owner": "China Huaneng Group Corporation (CHNG)", "source": "GCPT", "url": "https:\/\/endcoal.org\/global-coal-plant-tracker\/" }, "geometry": { "type": "Point", "coordinates": [ 116.7364, 23.3252 ] } },
{ "type": "Feature", "id": 197, "properties": { "primary_fuel": "Coal", "name": "Huaneng Taicang power station", "capacity_mw": 1900.0, "owner": "China Huaneng Group Corporation (CHNG)", "source": "GCPT", "url": "https:\/\/endcoal.org\/global-coal-plant-tracker\/" }, "geometry": { "type": "Point", "coordinates": [ 121.1799, 31.6566 ] } },
{ "type": "Feature", "id": 198, "properties": { "primary_fuel": "Coal", "name": "Huaneng Tongchuan power station", "capacity_mw": 1200.0, "owner": "Huaneng Shaanxi Power Co Ltd", "source": "GCPT", "url": "https:\/\/endcoal.org\/global-coal-plant-tracker\/" }, "geometry": { "type": "Point", "coordinates": [ 108.8891, 34.8494 ] } },
{ "type": "Feature", "id": 199, "properties": { "primary_fuel": "Coal", "name": "Huaneng Wuhai Haibowan power station", "capacity_mw": 1060.0, "owner": "North United Power Co Ltd", "source": "GCPT", "url": "https:\/\/endcoal.org\/global-coal-plant-tracker\/" }, "geometry": { "type": "Point", "coordinates": [ 106.865, 39.3174 ] } },
{ "type": "Feature", "id": 200, "properties": { "primary_fuel": "Coal", "name": "Huaneng Yangliuqing power station", "capacity_mw": 1300.0, "owner": "China Huaneng Group Corporation (CHNG)", "source": "GCPT", "url": "https:\/\/endcoal.org\/global-coal-plant-tracker\/" }, "geometry": { "type": "Point", "coordinates": [ 117.038, 39.1512 ] } },
{ "type": "Feature", "id": 201, "properties": { "primary_fuel": "Coal", "name": "Huaneng Yangluo power station", "capacity_mw": 2400.0, "owner": "China Huaneng Group Corporation (CHNG)", "source": "GCPT", "url": "https:\/\/endcoal.org\/global-coal-plant-tracker\/" }, "geometry": { "type": "Point", "coordinates": [ 114.5437, 30.6931 ] } },
{ "type": "Feature", "id": 202, "properties": { "primary_fuel": "Coal", "name": "Huaneng Yimin power station", "capacity_mw": 3400.0, "owner": "Huaneng Yimin Coal & Electric Co Ltd", "source": "GCPT", "url": "https:\/\/endcoal.org\/global-coal-plant-tracker\/" }, "geometry": { "type": "Point", "coordinates": [ 119.7739, 48.5497 ] } },
{ "type": "Feature", "id": 203, "properties": { "primary_fuel": "Coal", "name": "Huaneng Yingkou power station", "capacity_mw": 1840.0, "owner": "China Huaneng Group Corporation (CHNG)", "source": "GCPT", "url": "https:\/\/endcoal.org\/global-coal-plant-tracker\/" }, "geometry": { "type": "Point", "coordinates": [ 122.1054, 40.3042 ] } },
{ "type": "Feature", "id": 204, "properties": { "primary_fuel": "Coal", "name": "Huaneng Yueyang power station", "capacity_mw": 2524.0, "owner": "China Huaneng Group Corporation (CHNG)", "source": "GCPT", "url": "https:\/\/endcoal.org\/global-coal-plant-tracker\/" }, "geometry": { "type": "Point", "coordinates": [ 113.1623, 29.4498 ] } },
{ "type": "Feature", "id": 205, "properties": { "primary_fuel": "Coal", "name": "Huaneng Yuhuan power station", "capacity_mw": 4200.0, "owner": "China Huaneng Group Corporation (CHNG)", "source": "GCPT", "url": "https:\/\/endcoal.org\/global-coal-plant-tracker\/" }, "geometry": { "type": "Point", "coordinates": [ 121.1398, 28.1142 ] } },
{ "type": "Feature", "id": 206, "properties": { "primary_fuel": "Coal", "name": "Huaneng Zuoquan power station", "capacity_mw": 1262.0, "owner": "China Huaneng Group Corporation (CHNG)", "source": "GCPT", "url": "https:\/\/endcoal.org\/global-coal-plant-tracker\/" }, "geometry": { "type": "Point", "coordinates": [ 113.3526, 37.0694 ] } },
{ "type": "Feature", "id": 207, "properties": { "primary_fuel": "Coal", "name": "Huangdao power station", "capacity_mw": 1770.0, "owner": "Datang Shandong Power Generation Co Ltd", "source": "GCPT", "url": "https:\/\/endcoal.org\/global-coal-plant-tracker\/" }, "geometry": { "type": "Point", "coordinates": [ 120.2193, 36.039 ] } },
{ "type": "Feature", "id": 208, "properties": { "primary_fuel": "Coal", "name": "Huanghua Cangzhou power station", "capacity_mw": 2520.0, "owner": "Shenhua Guohua Electric Power Corporation", "source": "GCPT", "url": "https:\/\/endcoal.org\/global-coal-plant-tracker\/" }, "geometry": { "type": "Point", "coordinates": [ 117.879, 38.3094 ] } },
{ "type": "Feature", "id": 209, "properties": { "primary_fuel": "Coal", "name": "Huangtai power station", "capacity_mw": 1360.0, "owner": "Huaneng Shandong Power Co Ltd", "source": "GCPT", "url": "https:\/\/endcoal.org\/global-coal-plant-tracker\/" }, "geometry": { "type": "Point", "coordinates": [ 117.088, 36.7078 ] } },
{ "type": "Feature", "id": 210, "properties": { "primary_fuel": "Coal", "name": "Huarun Cangnan power station", "capacity_mw": 2000.0, "owner": "China Resources Power Holdings Co Ltd", "source": "GCPT", "url": "https:\/\/endcoal.org\/global-coal-plant-tracker\/" }, "geometry": { "type": "Point", "coordinates": [ 120.663, 27.4974 ] } },
{ "type": "Feature", "id": 211, "properties": { "primary_fuel": "Coal", "name": "Hubei Ezhou power station", "capacity_mw": 1900.0, "owner": "Hubei Energy Group Co Ltd", "source": "GCPT", "url": "https:\/\/endcoal.org\/global-coal-plant-tracker\/" }, "geometry": { "type": "Point", "coordinates": [ 114.6425, 30.5519 ] } },
{ "type": "Feature", "id": 212, "properties": { "primary_fuel": "Coal", "name": "Huolinhe Zhanute power station", "capacity_mw": 2380.0, "owner": "Hangzhou Jinjiang Group", "source": "GCPT", "url": "https:\/\/endcoal.org\/global-coal-plant-tracker\/" }, "geometry": { "type": "Point", "coordinates": [ 119.5971, 45.4098 ] } },
{ "type": "Feature", "id": 213, "properties": { "primary_fuel": "Coal", "name": "Huozhou power station", "capacity_mw": 1200.0, "owner": "Guodian Shanxi Branch Co Ltd", "source": "GCPT", "url": "https:\/\/endcoal.org\/global-coal-plant-tracker\/" }, "geometry": { "type": "Point", "coordinates": [ 111.6823, 36.5183 ] } },
{ "type": "Feature", "id": 214, "properties": { "primary_fuel": "Coal", "name": "Jianbi power station", "capacity_mw": 2990.0, "owner": "China Guodian Group Corporation", "source": "GCPT", "url": "https:\/\/endcoal.org\/global-coal-plant-tracker\/" }, "geometry": { "type": "Point", "coordinates": [ 119.5755, 32.1779 ] } },
{ "type": "Feature", "id": 215, "properties": { "primary_fuel": "Coal", "name": "Jiangsu Guohua Chenjiagang power station", "capacity_mw": 1320.0, "owner": "Shenhua Guohua Electric Power Corporation", "source": "GCPT", "url": "https:\/\/endcoal.org\/global-coal-plant-tracker\/" }, "geometry": { "type": "Point", "coordinates": [ 119.7985, 34.4242 ] } },
{ "type": "Feature", "id": 216, "properties": { "primary_fuel": "Coal", "name": "Jiangsu Guoxin Jingjiang power station", "capacity_mw": 1320.0, "owner": "Jingjiang Power Station", "source": "GCPT", "url": "https:\/\/endcoal.org\/global-coal-plant-tracker\/" }, "geometry": { "type": "Point", "coordinates": [ 120.3828, 32.0307 ] } },
{ "type": "Feature", "id": 217, "properties": { "primary_fuel": "Coal", "name": "Jiangsu Nanre Thermal power station", "capacity_mw": 1200.0, "owner": "China Resources Power Holdings", "source": "GCPT", "url": "https:\/\/endcoal.org\/global-coal-plant-tracker\/" }, "geometry": { "type": "Point", "coordinates": [ 118.7531, 32.2079 ] } },
{ "type": "Feature", "id": 218, "properties": { "primary_fuel": "Coal", "name": "Jiangsu Nantong power station", "capacity_mw": 3404.0, "owner": "China Huaneng Group Corporation (CHNG)", "source": "GCPT", "url": "https:\/\/endcoal.org\/global-coal-plant-tracker\/" }, "geometry": { "type": "Point", "coordinates": [ 120.7692, 32.0321 ] } },
{ "type": "Feature", "id": 219, "properties": { "primary_fuel": "Coal", "name": "Jiangsu Sheyanggang power station", "capacity_mw": 1320.0, "owner": "Sheyanggang Power Gen Co Ltd", "source": "GCPT", "url": "https:\/\/endcoal.org\/global-coal-plant-tracker\/" }, "geometry": { "type": "Point", "coordinates": [ 120.4633, 33.8185 ] } },
{ "type": "Feature", "id": 220, "properties": { "primary_fuel": "Coal", "name": "Jiangsu Zhenjiang power station", "capacity_mw": 1820.0, "owner": "China Resources Power Holdings Co Ltd", "source": "GCPT", "url": "https:\/\/endcoal.org\/global-coal-plant-tracker\/" }, "geometry": { "type": "Point", "coordinates": [ 119.2709, 32.1852 ] } },
{ "type": "Feature", "id": 221, "properties": { "primary_fuel": "Coal", "name": "Jiangyin Sulong power station", "capacity_mw": 1214.0, "owner": "China Guodian Group Corporation", "source": "GCPT", "url": "https:\/\/endcoal.org\/global-coal-plant-tracker\/" }, "geometry": { "type": "Point", "coordinates": [ 120.2054, 31.9192 ] } },
{ "type": "Feature", "id": 222, "properties": { "primary_fuel": "Coal", "name": "Jiangyou power station", "capacity_mw": 1260.0, "owner": "Sichuan Bashu Electric Power Development Co Ltd", "source": "GCPT", "url": "https:\/\/endcoal.org\/global-coal-plant-tracker\/" }, "geometry": { "type": "Point", "coordinates": [ 104.7679, 31.8045 ] } },
{ "type": "Feature", "id": 223, "properties": { "primary_fuel": "Coal", "name": "Jiaozuo - Shenhua 7-8 Coal", "capacity_mw": 1320.0, "owner": "Shenhua Guoneng Energy Group", "source": "Industry About", "url": "https:\/\/industryabout.com\/country-territories-3\/1705-china\/fossil-fuels-energy\/33192-jiaozuo-shenhua-7-8-coal-power-plant" }, "geometry": { "type": "Point", "coordinates": [ 113.2003, 35.2234 ] } },
{ "type": "Feature", "id": 224, "properties": { "primary_fuel": "Coal", "name": "Jiaozuo Boai power station", "capacity_mw": 1320.0, "owner": "China Resources Power Holdings Co Ltd", "source": "GCPT", "url": "https:\/\/endcoal.org\/global-coal-plant-tracker\/" }, "geometry": { "type": "Point", "coordinates": [ 113.1022, 35.221 ] } },
{ "type": "Feature", "id": 225, "properties": { "primary_fuel": "Coal", "name": "Jiaxing power station", "capacity_mw": 5000.0, "owner": "Jiaxing Power Generation Co Ltd", "source": "GCPT", "url": "https:\/\/endcoal.org\/global-coal-plant-tracker\/" }, "geometry": { "type": "Point", "coordinates": [ 121.1436, 30.6283 ] } },
{ "type": "Feature", "id": 226, "properties": { "primary_fuel": "Coal", "name": "Jiayuguan - Datang Coal", "capacity_mw": 1200.0, "owner": "Datang Gansu Power Generation Co Ltd", "source": "Industry About", "url": "https:\/\/industryabout.com\/country-territories-3\/1705-china\/fossil-fuels-energy\/33388-jiayuguan-datang-coal-power-plant" }, "geometry": { "type": "Point", "coordinates": [ 98.3084, 39.7951 ] } },
{ "type": "Feature", "id": 227, "properties": { "primary_fuel": "Coal", "name": "Jiayuguan Aluminum power station", "capacity_mw": 1400.0, "owner": "Jisco 1 Power Station", "source": "GCPT", "url": "https:\/\/endcoal.org\/global-coal-plant-tracker\/" }, "geometry": { "type": "Point", "coordinates": [ 98.2122, 39.8461 ] } },
{ "type": "Feature", "id": 228, "properties": { "primary_fuel": "Coal", "name": "Jingdezhen power station", "capacity_mw": 1320.0, "owner": "China Power Investment Corporation (CPI)", "source": "GCPT", "url": "https:\/\/endcoal.org\/global-coal-plant-tracker\/" }, "geometry": { "type": "Point", "coordinates": [ 117.0842, 29.1866 ] } },
{ "type": "Feature", "id": 229, "properties": { "primary_fuel": "Coal", "name": "Jingyuan-2 power station", "capacity_mw": 1240.0, "owner": "Huajing Power Holding", "source": "GCPT", "url": "https:\/\/endcoal.org\/global-coal-plant-tracker\/" }, "geometry": { "type": "Point", "coordinates": [ 104.7588, 36.73 ] } },
{ "type": "Feature", "id": 230, "properties": { "primary_fuel": "Coal", "name": "Jinsha Chayuan power station", "capacity_mw": 1320.0, "owner": "China Power International Development Limited", "source": "GCPT", "url": "https:\/\/endcoal.org\/global-coal-plant-tracker\/" }, "geometry": { "type": "Point", "coordinates": [ 106.4492, 27.4934 ] } },
{ "type": "Feature", "id": 231, "properties": { "primary_fuel": "Coal", "name": "Jinzhushan power station", "capacity_mw": 1950.0, "owner": "Datang Hunan Huayin Electric Power", "source": "GCPT", "url": "https:\/\/endcoal.org\/global-coal-plant-tracker\/" }, "geometry": { "type": "Point", "coordinates": [ 111.4819, 27.6261 ] } },
{ "type": "Feature", "id": 232, "properties": { "primary_fuel": "Coal", "name": "Kaifeng-2 power station", "capacity_mw": 1260.0, "owner": "CPI Henan Electric Power Co Ltd", "source": "GCPT", "url": "https:\/\/endcoal.org\/global-coal-plant-tracker\/" }, "geometry": { "type": "Point", "coordinates": [ 114.4451, 34.8063 ] } },
{ "type": "Feature", "id": 233, "properties": { "primary_fuel": "Coal", "name": "Kangping power station", "capacity_mw": 1200.0, "owner": "China Guodian Group Corporation", "source": "GCPT", "url": "https:\/\/endcoal.org\/global-coal-plant-tracker\/" }, "geometry": { "type": "Point", "coordinates": [ 123.3658, 42.7009 ] } },
{ "type": "Feature", "id": 234, "properties": { "primary_fuel": "Coal", "name": "Kanshan power station", "capacity_mw": 1200.0, "owner": "Jiangsu Kanshan Power Co Ltd", "source": "GCPT", "url": "https:\/\/endcoal.org\/global-coal-plant-tracker\/" }, "geometry": { "type": "Point", "coordinates": [ 117.5773, 34.41 ] } },
{ "type": "Feature", "id": 235, "properties": { "primary_fuel": "Coal", "name": "Laibin power station", "capacity_mw": 1320.0, "owner": "Guangxi Investment Group Co Ltd", "source": "GCPT", "url": "https:\/\/endcoal.org\/global-coal-plant-tracker\/" }, "geometry": { "type": "Point", "coordinates": [ 109.1629, 23.6949 ] } },
{ "type": "Feature", "id": 236, "properties": { "primary_fuel": "Coal", "name": "Laicheng power station", "capacity_mw": 1200.0, "owner": "Huadian Power International Corporation Limited", "source": "GCPT", "url": "https:\/\/endcoal.org\/global-coal-plant-tracker\/" }, "geometry": { "type": "Point", "coordinates": [ 117.6725, 36.2547 ] } },
{ "type": "Feature", "id": 237, "properties": { "primary_fuel": "Coal", "name": "Lanxi power station", "capacity_mw": 2400.0, "owner": "Zhejiang Zheneng Electric Power Co Ltd", "source": "GCPT", "url": "https:\/\/endcoal.org\/global-coal-plant-tracker\/" }, "geometry": { "type": "Point", "coordinates": [ 119.5068, 29.1861 ] } },
{ "type": "Feature", "id": 238, "properties": { "primary_fuel": "Coal", "name": "Leiyang power station", "capacity_mw": 1020.0, "owner": "Datang Hunan Huayin Electric Power", "source": "GCPT", "url": "https:\/\/endcoal.org\/global-coal-plant-tracker\/" }, "geometry": { "type": "Point", "coordinates": [ 112.859, 26.3851 ] } },
{ "type": "Feature", "id": 239, "properties": { "primary_fuel": "Coal", "name": "Liaocheng Zhonghua power station", "capacity_mw": 1200.0, "owner": "Shandong Zhonghua Power Co Ltd", "source": "GCPT", "url": "https:\/\/endcoal.org\/global-coal-plant-tracker\/" }, "geometry": { "type": "Point", "coordinates": [ 115.9094, 36.4659 ] } },
{ "type": "Feature", "id": 240, "properties": { "primary_fuel": "Coal", "name": "Ligang power station", "capacity_mw": 3960.0, "owner": "CITIC Limited", "source": "GCPT", "url": "https:\/\/endcoal.org\/global-coal-plant-tracker\/" }, "geometry": { "type": "Point", "coordinates": [ 120.0764, 31.9403 ] } },
{ "type": "Feature", "id": 241, "properties": { "primary_fuel": "Coal", "name": "Linyi power station", "capacity_mw": 1260.0, "owner": "Huaneng Shandong Power Co Ltd", "source": "GCPT", "url": "https:\/\/endcoal.org\/global-coal-plant-tracker\/" }, "geometry": { "type": "Point", "coordinates": [ 118.3239, 35.0071 ] } },
{ "type": "Feature", "id": 242, "properties": { "primary_fuel": "Coal", "name": "Liulin 1 Coal", "capacity_mw": 1400.0, "owner": "Shanxi International Energy Co Ltd", "source": "Industry About", "url": "https:\/\/industryabout.com\/country-territories-3\/1705-china\/fossil-fuels-energy\/33559-liulin-1-coal-power-plant" }, "geometry": { "type": "Point", "coordinates": [ 110.8243, 37.419 ] } },
{ "type": "Feature", "id": 243, "properties": { "primary_fuel": "Coal", "name": "Liulin Liansheng power station", "capacity_mw": 2000.0, "owner": "Shanxi International Energy Co Ltd", "source": "GCPT", "url": "https:\/\/endcoal.org\/global-coal-plant-tracker\/" }, "geometry": { "type": "Point", "coordinates": [ 110.7761, 37.4079 ] } },
{ "type": "Feature", "id": 244, "properties": { "primary_fuel": "Coal", "name": "Lixin Banji power station", "capacity_mw": 2000.0, "owner": "SDIC Huajing Power Holdings Ltd", "source": "GCPT", "url": "https:\/\/endcoal.org\/global-coal-plant-tracker\/" }, "geometry": { "type": "Point", "coordinates": [ 116.2425, 32.8972 ] } },
{ "type": "Feature", "id": 245, "properties": { "primary_fuel": "Coal", "name": "Liyujiang-2B power station", "capacity_mw": 1300.0, "owner": "China Resources Power Holdings Co Ltd", "source": "GCPT", "url": "https:\/\/endcoal.org\/global-coal-plant-tracker\/" }, "geometry": { "type": "Point", "coordinates": [ 113.1925, 25.9404 ] } },
{ "type": "Feature", "id": 246, "properties": { "primary_fuel": "Coal", "name": "Luoyang Mengjin power station", "capacity_mw": 1200.0, "owner": "Shenhua Guohua Mengjin Power", "source": "GCPT", "url": "https:\/\/endcoal.org\/global-coal-plant-tracker\/" }, "geometry": { "type": "Point", "coordinates": [ 112.5307, 34.8648 ] } },
{ "type": "Feature", "id": 247, "properties": { "primary_fuel": "Coal", "name": "Luoyang Shouyangshan-3 power station", "capacity_mw": 1260.0, "owner": "China Resources Power Holdings Co Ltd", "source": "GCPT", "url": "https:\/\/endcoal.org\/global-coal-plant-tracker\/" }, "geometry": { "type": "Point", "coordinates": [ 112.684, 34.7371 ] } },
{ "type": "Feature", "id": 248, "properties": { "primary_fuel": "Coal", "name": "Lusigang power station", "capacity_mw": 2640.0, "owner": "Datang International Power Generation Co Ltd", "source": "GCPT", "url": "https:\/\/endcoal.org\/global-coal-plant-tracker\/" }, "geometry": { "type": "Point", "coordinates": [ 121.7267, 32.0577 ] } },
{ "type": "Feature", "id": 249, "properties": { "primary_fuel": "Coal", "name": "Luzhou Chuannan power station", "capacity_mw": 1200.0, "owner": "China Huadian Group Corporation", "source": "GCPT", "url": "https:\/\/endcoal.org\/global-coal-plant-tracker\/" }, "geometry": { "type": "Point", "coordinates": [ 105.284, 28.7755 ] } },
{ "type": "Feature", "id": 250, "properties": { "primary_fuel": "Coal", "name": "Manas power station", "capacity_mw": 1020.0, "owner": "Xinjiang Tianshan Power Co Ltd", "source": "GCPT", "url": "https:\/\/endcoal.org\/global-coal-plant-tracker\/" }, "geometry": { "type": "Point", "coordinates": [ 86.1689, 44.318 ] } },
{ "type": "Feature", "id": 251, "properties": { "primary_fuel": "Coal", "name": "Mawan power station", "capacity_mw": 1840.0, "owner": "Shenzhen Energy Group Co Ltd", "source": "GCPT", "url": "https:\/\/endcoal.org\/global-coal-plant-tracker\/" }, "geometry": { "type": "Point", "coordinates": [ 113.872, 22.4818 ] } },
{ "type": "Feature", "id": 252, "properties": { "primary_fuel": "Coal", "name": "Meizhou Wan power station", "capacity_mw": 2786.0, "owner": "SDIC Huajing Power Holdings Co", "source": "GCPT", "url": "https:\/\/endcoal.org\/global-coal-plant-tracker\/" }, "geometry": { "type": "Point", "coordinates": [ 119.0334, 25.1609 ] } },
{ "type": "Feature", "id": 253, "properties": { "primary_fuel": "Coal", "name": "Mudanjiang-2 power station", "capacity_mw": 1230.0, "owner": "Huadian Power International Company Limited", "source": "GCPT", "url": "https:\/\/endcoal.org\/global-coal-plant-tracker\/" }, "geometry": { "type": "Point", "coordinates": [ 129.6504, 44.6571 ] } },
{ "type": "Feature", "id": 254, "properties": { "primary_fuel": "Coal", "name": "Nanpu Quanzhou power station", "capacity_mw": 1940.0, "owner": "Guodian Fujian Power Co Ltd", "source": "GCPT", "url": "https:\/\/endcoal.org\/global-coal-plant-tracker\/" }, "geometry": { "type": "Point", "coordinates": [ 118.9439, 25.2038 ] } },
{ "type": "Feature", "id": 255, "properties": { "primary_fuel": "Coal", "name": "Nanre Coal", "capacity_mw": 1200.0, "owner": "China Resources Power Holdings Co Ltd", "source": "Industry About", "url": "https:\/\/industryabout.com\/country-territories-3\/1705-china\/fossil-fuels-energy\/33019-nanre-coal-power-plant" }, "geometry": { "type": "Point", "coordinates": [ 118.6301, 31.9473 ] } },
{ "type": "Feature", "id": 256, "properties": { "primary_fuel": "Coal", "name": "Nanshan Aluminum Donghai power station", "capacity_mw": 1730.0, "owner": "Shandong Nanshan Aluminum Co Ltd", "source": "GCPT", "url": "https:\/\/endcoal.org\/global-coal-plant-tracker\/" }, "geometry": { "type": "Point", "coordinates": [ 120.4433, 37.7286 ] } },
{ "type": "Feature", "id": 257, "properties": { "primary_fuel": "Coal", "name": "Nanyang Yahekou power station", "capacity_mw": 1900.0, "owner": "Henan Investment Group Co Ltd", "source": "GCPT", "url": "https:\/\/endcoal.org\/global-coal-plant-tracker\/" }, "geometry": { "type": "Point", "coordinates": [ 112.6451, 33.3082 ] } },
{ "type": "Feature", "id": 258, "properties": { "primary_fuel": "Coal", "name": "Nayong-1 power station", "capacity_mw": 1200.0, "owner": "Datang Guizhou Power Generation Corporation", "source": "GCPT", "url": "https:\/\/endcoal.org\/global-coal-plant-tracker\/" }, "geometry": { "type": "Point", "coordinates": [ 105.1822, 26.6527 ] } },
{ "type": "Feature", "id": 259, "properties": { "primary_fuel": "Coal", "name": "Nayong-2 power station", "capacity_mw": 1200.0, "owner": "China Datang Corporation", "source": "GCPT", "url": "https:\/\/endcoal.org\/global-coal-plant-tracker\/" }, "geometry": { "type": "Point", "coordinates": [ 105.2029, 26.5976 ] } },
{ "type": "Feature", "id": 260, "properties": { "primary_fuel": "Coal", "name": "Ninghai power station", "capacity_mw": 4400.0, "owner": "Shenhua Guohua Electric Power Co Ltd", "source": "GCPT", "url": "https:\/\/endcoal.org\/global-coal-plant-tracker\/" }, "geometry": { "type": "Point", "coordinates": [ 121.5109, 29.481 ] } },
{ "type": "Feature", "id": 261, "properties": { "primary_fuel": "Coal", "name": "Ordos Power Qipanjing power station", "capacity_mw": 1960.0, "owner": "Ordos Share Holding Group", "source": "GCPT", "url": "https:\/\/endcoal.org\/global-coal-plant-tracker\/" }, "geometry": { "type": "Point", "coordinates": [ 106.9657, 39.3857 ] } },
{ "type": "Feature", "id": 262, "properties": { "primary_fuel": "Coal", "name": "Panshan power station", "capacity_mw": 2260.0, "owner": "Panshan Power Station", "source": "GCPT", "url": "https:\/\/endcoal.org\/global-coal-plant-tracker\/" }, "geometry": { "type": "Point", "coordinates": [ 117.4628, 39.9793 ] } },
{ "type": "Feature", "id": 263, "properties": { "primary_fuel": "Coal", "name": "Panxian-1 power station", "capacity_mw": 1320.0, "owner": "Guizhou Power Generation Co Ltd", "source": "GCPT", "url": "https:\/\/endcoal.org\/global-coal-plant-tracker\/" }, "geometry": { "type": "Point", "coordinates": [ 104.5161, 26.0106 ] } },
{ "type": "Feature", "id": 264, "properties": { "primary_fuel": "Coal", "name": "Panxian-2 power station", "capacity_mw": 2400.0, "owner": "Guangdong Yudean Group Company Limited", "source": "GCPT", "url": "https:\/\/endcoal.org\/global-coal-plant-tracker\/" }, "geometry": { "type": "Point", "coordinates": [ 104.5924, 25.4692 ] } },
{ "type": "Feature", "id": 265, "properties": { "primary_fuel": "Coal", "name": "Pingdingshan Luyang power station", "capacity_mw": 2060.0, "owner": "CPI Henan Electric Power Co Ltd", "source": "GCPT", "url": "https:\/\/endcoal.org\/global-coal-plant-tracker\/" }, "geometry": { "type": "Point", "coordinates": [ 113.0146, 33.8211 ] } },
{ "type": "Feature", "id": 266, "properties": { "primary_fuel": "Coal", "name": "Pucheng power station", "capacity_mw": 2580.0, "owner": "Shaanxi Huadian Pucheng Co Ltd", "source": "GCPT", "url": "https:\/\/endcoal.org\/global-coal-plant-tracker\/" }, "geometry": { "type": "Point", "coordinates": [ 109.8, 34.9783 ] } },
{ "type": "Feature", "id": 267, "properties": { "primary_fuel": "Coal", "name": "Puqi Xianning power station", "capacity_mw": 2600.0, "owner": "China Resources Power Holdings Co Ltd", "source": "GCPT", "url": "https:\/\/endcoal.org\/global-coal-plant-tracker\/" }, "geometry": { "type": "Point", "coordinates": [ 113.8734, 29.6653 ] } },
{ "type": "Feature", "id": 268, "properties": { "primary_fuel": "Coal", "name": "Qianbei power station", "capacity_mw": 1200.0, "owner": "Guizhou Electric Power Corporation", "source": "GCPT", "url": "https:\/\/endcoal.org\/global-coal-plant-tracker\/" }, "geometry": { "type": "Point", "coordinates": [ 106.2582, 27.4757 ] } },
{ "type": "Feature", "id": 269, "properties": { "primary_fuel": "Coal", "name": "Qiandong power station", "capacity_mw": 1200.0, "owner": "China Power International Development", "source": "GCPT", "url": "https:\/\/endcoal.org\/global-coal-plant-tracker\/" }, "geometry": { "type": "Point", "coordinates": [ 108.7704, 27.1251 ] } },
{ "type": "Feature", "id": 270, "properties": { "primary_fuel": "Coal", "name": "Qianxi power station", "capacity_mw": 1860.0, "owner": "Guizhou Electric Power Corporation", "source": "GCPT", "url": "https:\/\/endcoal.org\/global-coal-plant-tracker\/" }, "geometry": { "type": "Point", "coordinates": [ 106.1261, 27.0512 ] } },
{ "type": "Feature", "id": 271, "properties": { "primary_fuel": "Coal", "name": "Qingdao power station", "capacity_mw": 1200.0, "owner": "Huadian Power International Company Limited", "source": "GCPT", "url": "https:\/\/endcoal.org\/global-coal-plant-tracker\/" }, "geometry": { "type": "Point", "coordinates": [ 120.3291, 36.1123 ] } },
{ "type": "Feature", "id": 272, "properties": { "primary_fuel": "Coal", "name": "Qingshan power station", "capacity_mw": 1030.0, "owner": "China Guodian Group Corporation", "source": "GCPT", "url": "https:\/\/endcoal.org\/global-coal-plant-tracker\/" }, "geometry": { "type": "Point", "coordinates": [ 114.4368, 30.6288 ] } },
{ "type": "Feature", "id": 273, "properties": { "primary_fuel": "Coal", "name": "Qinhuangdao-2 power station", "capacity_mw": 1630.0, "owner": "Hebei Construction Energy Investment Co Ltd", "source": "GCPT", "url": "https:\/\/endcoal.org\/global-coal-plant-tracker\/" }, "geometry": { "type": "Point", "coordinates": [ 119.6433, 39.9456 ] } },
{ "type": "Feature", "id": 274, "properties": { "primary_fuel": "Coal", "name": "Qujing power station", "capacity_mw": 1200.0, "owner": "Yunnan Coal Chemical Industry Group Co Ltd", "source": "GCPT", "url": "https:\/\/endcoal.org\/global-coal-plant-tracker\/" }, "geometry": { "type": "Point", "coordinates": [ 104.0667, 25.6618 ] } },
{ "type": "Feature", "id": 275, "properties": { "primary_fuel": "Coal", "name": "Rizhao power station", "capacity_mw": 2060.0, "owner": "Huaneng Shandong Power Co Ltd", "source": "GCPT", "url": "https:\/\/endcoal.org\/global-coal-plant-tracker\/" }, "geometry": { "type": "Point", "coordinates": [ 119.5111, 35.345 ] } },
{ "type": "Feature", "id": 276, "properties": { "primary_fuel": "Coal", "name": "SDIC Dananhu power station", "capacity_mw": 1320.0, "owner": "SDIC Hami Energy Co Ltd", "source": "GCPT", "url": "https:\/\/endcoal.org\/global-coal-plant-tracker\/" }, "geometry": { "type": "Point", "coordinates": [ 93.3519, 42.3055 ] } },
{ "type": "Feature", "id": 277, "properties": { "primary_fuel": "Coal", "name": "SDIC Qinzhou power station", "capacity_mw": 3360.0, "owner": "SDIC Huajing Power Holdings Ltd", "source": "GCPT", "url": "https:\/\/endcoal.org\/global-coal-plant-tracker\/" }, "geometry": { "type": "Point", "coordinates": [ 108.625, 21.7012 ] } },
{ "type": "Feature", "id": 278, "properties": { "primary_fuel": "Coal", "name": "SGCC Ewenki power station", "capacity_mw": 1200.0, "owner": "Shenhua Guoneng Energy Group", "source": "GCPT", "url": "https:\/\/endcoal.org\/global-coal-plant-tracker\/" }, "geometry": { "type": "Point", "coordinates": [ 119.9407, 48.7296 ] } },
{ "type": "Feature", "id": 279, "properties": { "primary_fuel": "Coal", "name": "Sanhe Yanjiao power station", "capacity_mw": 1300.0, "owner": "CSEC Guohua International Power Co Ltd", "source": "GCPT", "url": "https:\/\/endcoal.org\/global-coal-plant-tracker\/" }, "geometry": { "type": "Point", "coordinates": [ 116.8487, 39.9528 ] } },
{ "type": "Feature", "id": 280, "properties": { "primary_fuel": "Coal", "name": "Sanshui Hengyi power station", "capacity_mw": 1200.0, "owner": "Foshan Public Utilities Holding Co Ltd", "source": "GCPT", "url": "https:\/\/endcoal.org\/global-coal-plant-tracker\/" }, "geometry": { "type": "Point", "coordinates": [ 112.8436, 23.0178 ] } },
{ "type": "Feature", "id": 281, "properties": { "primary_fuel": "Coal", "name": "Shaanxi Youser Yulin power station", "capacity_mw": 1650.0, "owner": "Shaanxi Non-Ferrous Metals Holding Group Co.", "source": "GCPT", "url": "https:\/\/endcoal.org\/global-coal-plant-tracker\/" }, "geometry": { "type": "Point", "coordinates": [ 109.7282, 38.2158 ] } },
{ "type": "Feature", "id": 282, "properties": { "primary_fuel": "Coal", "name": "Shahe power station", "capacity_mw": 1200.0, "owner": "Hebei Construction Energy Investment Co Ltd", "source": "GCPT", "url": "https:\/\/endcoal.org\/global-coal-plant-tracker\/" }, "geometry": { "type": "Point", "coordinates": [ 114.3243, 36.8535 ] } },
{ "type": "Feature", "id": 283, "properties": { "primary_fuel": "Coal", "name": "Shanghai Caojing power station", "capacity_mw": 2000.0, "owner": "Shanghai Electric Group Company Limited", "source": "GCPT", "url": "https:\/\/endcoal.org\/global-coal-plant-tracker\/" }, "geometry": { "type": "Point", "coordinates": [ 121.4008, 30.7607 ] } },
{ "type": "Feature", "id": 284, "properties": { "primary_fuel": "Coal", "name": "Shanwei Haifeng power station", "capacity_mw": 2000.0, "owner": "China Resources Power Holdings Co Ltd", "source": "GCPT", "url": "https:\/\/endcoal.org\/global-coal-plant-tracker\/" }, "geometry": { "type": "Point", "coordinates": [ 115.0426, 22.7545 ] } },
{ "type": "Feature", "id": 285, "properties": { "primary_fuel": "Coal", "name": "Shanwei Honghaiwan power station", "capacity_mw": 2520.0, "owner": "Guangdong Electric Power Development Co Ltd", "source": "GCPT", "url": "https:\/\/endcoal.org\/global-coal-plant-tracker\/" }, "geometry": { "type": "Point", "coordinates": [ 115.5543, 22.7061 ] } },
{ "type": "Feature", "id": 286, "properties": { "primary_fuel": "Coal", "name": "Shanxi Zhaoguang Phase 1", "capacity_mw": 1800.0, "owner": "", "source": "SHANXI INTERNATIONAL ENERGY GROUP", "url": "http:\/\/en.sxgjny.com\/zgfd\/SubComInfo.aspx?comId=54&catalogId=77&tp=Pro&SubCatalogID=22&menuid=1" }, "geometry": { "type": "Point", "coordinates": [ 111.6932, 36.5545 ] } },
{ "type": "Feature", "id": 287, "properties": { "primary_fuel": "Coal", "name": "Shengli Dongying power station", "capacity_mw": 1700.0, "owner": "Shengli Petrolium Administration", "source": "GCPT", "url": "https:\/\/endcoal.org\/global-coal-plant-tracker\/" }, "geometry": { "type": "Point", "coordinates": [ 118.5243, 37.4013 ] } },
{ "type": "Feature", "id": 288, "properties": { "primary_fuel": "Coal", "name": "Shenhua Anqing power station", "capacity_mw": 2640.0, "owner": "Shenhua Anqing Power Station", "source": "GCPT", "url": "https:\/\/endcoal.org\/global-coal-plant-tracker\/" }, "geometry": { "type": "Point", "coordinates": [ 117.1717, 30.5411 ] } },
{ "type": "Feature", "id": 289, "properties": { "primary_fuel": "Coal", "name": "Shenhua Fugu power station", "capacity_mw": 1200.0, "owner": "Shenhua Guoneng Energy Group", "source": "GCPT", "url": "https:\/\/endcoal.org\/global-coal-plant-tracker\/" }, "geometry": { "type": "Point", "coordinates": [ 110.7858, 39.2092 ] } },
{ "type": "Feature", "id": 290, "properties": { "primary_fuel": "Coal", "name": "Shenhua Guohua Jinjie power station", "capacity_mw": 2400.0, "owner": "Shenhua Guoneng Energy Group", "source": "GCPT", "url": "https:\/\/endcoal.org\/global-coal-plant-tracker\/" }, "geometry": { "type": "Point", "coordinates": [ 110.1661, 38.7365 ] } },
{ "type": "Feature", "id": 291, "properties": { "primary_fuel": "Coal", "name": "Shenhua Guoneng Hami power station", "capacity_mw": 2640.0, "owner": "Shenhua Guoneng Energy Group", "source": "GCPT", "url": "https:\/\/endcoal.org\/global-coal-plant-tracker\/" }, "geometry": { "type": "Point", "coordinates": [ 93.0092, 42.4112 ] } },
{ "type": "Feature", "id": 292, "properties": { "primary_fuel": "Coal", "name": "Shenhua Hequ power station", "capacity_mw": 2400.0, "owner": "Shenhua Guoneng Energy Group", "source": "GCPT", "url": "https:\/\/endcoal.org\/global-coal-plant-tracker\/" }, "geometry": { "type": "Point", "coordinates": [ 111.1852, 39.3829 ] } },
{ "type": "Feature", "id": 293, "properties": { "primary_fuel": "Coal", "name": "Shenhua Jiujiang power station", "capacity_mw": 2104.0, "owner": "Shenhua Guohua Elec Power Corp Jiangxi Branch", "source": "GCPT", "url": "https:\/\/endcoal.org\/global-coal-plant-tracker\/" }, "geometry": { "type": "Point", "coordinates": [ 116.376, 29.8266 ] } },