{
"type": "FeatureCollection",
"name": "pplants",
"features": [
{ "type": "Feature", "id": 1, "properties": { "primary_fuel": "Coal", "name": "CENTRAL BAHIA BLANCA (PIEDRA BUENA) SA" }, "geometry": { "type": "Point", "coordinates": [ -62.2536, -38.7872 ] } },
{ "type": "Feature", "id": 2, "properties": { "primary_fuel": "Coal", "name": "CENTRAL TERMICA GÜEMES SA" }, "geometry": { "type": "Point", "coordinates": [ -65.0425, -24.6894 ] } },
{ "type": "Feature", "id": 3, "properties": { "primary_fuel": "Coal", "name": "COSTANERA" }, "geometry": { "type": "Point", "coordinates": [ -58.3393, -34.626 ] } },
{ "type": "Feature", "id": 4, "properties": { "primary_fuel": "Coal", "name": "CT ECOENERGIA (PETROBRAS)" }, "geometry": { "type": "Point", "coordinates": [ -62.3961, -38.6871 ] } },
{ "type": "Feature", "id": 5, "properties": { "primary_fuel": "Coal", "name": "NECOCHEA" }, "geometry": { "type": "Point", "coordinates": [ -58.7108, -38.5785 ] } },
{ "type": "Feature", "id": 6, "properties": { "primary_fuel": "Coal", "name": "PILAR ZANICHELLI" }, "geometry": { "type": "Point", "coordinates": [ -63.8344, -31.6662 ] } },
{ "type": "Feature", "id": 7, "properties": { "primary_fuel": "Coal", "name": "PUERTO NUEVO" }, "geometry": { "type": "Point", "coordinates": [ -58.3788, -34.5754 ] } },
{ "type": "Feature", "id": 8, "properties": { "primary_fuel": "Coal", "name": "SAN NICOLAS" }, "geometry": { "type": "Point", "coordinates": [ -60.1729, -33.3562 ] } },
{ "type": "Feature", "id": 9, "properties": { "primary_fuel": "Coal", "name": "SORRENTO" }, "geometry": { "type": "Point", "coordinates": [ -60.6807, -32.9053 ] } },
{ "type": "Feature", "id": 10, "properties": { "primary_fuel": "Coal", "name": "Anglesea" }, "geometry": { "type": "Point", "coordinates": [ 144.1828, -38.3861 ] } },
{ "type": "Feature", "id": 11, "properties": { "primary_fuel": "Coal", "name": "Bayswater" }, "geometry": { "type": "Point", "coordinates": [ 150.9491, -32.3953 ] } },
{ "type": "Feature", "id": 12, "properties": { "primary_fuel": "Coal", "name": "Callide A" }, "geometry": { "type": "Point", "coordinates": [ 150.628, -24.334 ] } },
{ "type": "Feature", "id": 13, "properties": { "primary_fuel": "Coal", "name": "Callide B" }, "geometry": { "type": "Point", "coordinates": [ 150.6197, -24.3449 ] } },
{ "type": "Feature", "id": 14, "properties": { "primary_fuel": "Coal", "name": "Callide C" }, "geometry": { "type": "Point", "coordinates": [ 150.6182, -24.3449 ] } },
{ "type": "Feature", "id": 15, "properties": { "primary_fuel": "Coal", "name": "Collie (Bluewaters)" }, "geometry": { "type": "Point", "coordinates": [ 116.229, -33.331 ] } },
{ "type": "Feature", "id": 16, "properties": { "primary_fuel": "Coal", "name": "Collie A" }, "geometry": { "type": "Point", "coordinates": [ 116.2612, -33.3422 ] } },
{ "type": "Feature", "id": 17, "properties": { "primary_fuel": "Coal", "name": "Collinsville" }, "geometry": { "type": "Point", "coordinates": [ 147.8049, -20.5447 ] } },
{ "type": "Feature", "id": 18, "properties": { "primary_fuel": "Coal", "name": "Energy Brix" }, "geometry": { "type": "Point", "coordinates": [ 146.4137, -38.2546 ] } },
{ "type": "Feature", "id": 19, "properties": { "primary_fuel": "Coal", "name": "Eraring" }, "geometry": { "type": "Point", "coordinates": [ 151.5206, -33.0621 ] } },
{ "type": "Feature", "id": 20, "properties": { "primary_fuel": "Coal", "name": "Gladstone" }, "geometry": { "type": "Point", "coordinates": [ 151.2187, -23.8508 ] } },
{ "type": "Feature", "id": 21, "properties": { "primary_fuel": "Coal", "name": "Hazelwood" }, "geometry": { "type": "Point", "coordinates": [ 146.3923, -38.2731 ] } },
{ "type": "Feature", "id": 22, "properties": { "primary_fuel": "Coal", "name": "Kogan Creek" }, "geometry": { "type": "Point", "coordinates": [ 150.7493, -26.9177 ] } },
{ "type": "Feature", "id": 23, "properties": { "primary_fuel": "Coal", "name": "Kwinana A" }, "geometry": { "type": "Point", "coordinates": [ 115.7752, -32.198 ] } },
{ "type": "Feature", "id": 24, "properties": { "primary_fuel": "Coal", "name": "Kwinana C" }, "geometry": { "type": "Point", "coordinates": [ 115.7747, -32.1992 ] } },
{ "type": "Feature", "id": 25, "properties": { "primary_fuel": "Coal", "name": "Liddell" }, "geometry": { "type": "Point", "coordinates": [ 150.9776, -32.3713 ] } },
{ "type": "Feature", "id": 26, "properties": { "primary_fuel": "Coal", "name": "Loy Yang A" }, "geometry": { "type": "Point", "coordinates": [ 146.5746, -38.2536 ] } },
{ "type": "Feature", "id": 27, "properties": { "primary_fuel": "Coal", "name": "Loy Yang B" }, "geometry": { "type": "Point", "coordinates": [ 146.5864, -38.2564 ] } },
{ "type": "Feature", "id": 28, "properties": { "primary_fuel": "Coal", "name": "Millmerran" }, "geometry": { "type": "Point", "coordinates": [ 151.2789, -27.9615 ] } },
{ "type": "Feature", "id": 29, "properties": { "primary_fuel": "Coal", "name": "Mt Piper" }, "geometry": { "type": "Point", "coordinates": [ 150.0313, -33.3589 ] } },
{ "type": "Feature", "id": 30, "properties": { "primary_fuel": "Coal", "name": "Muja A" }, "geometry": { "type": "Point", "coordinates": [ 116.3081, -33.4467 ] } },
{ "type": "Feature", "id": 31, "properties": { "primary_fuel": "Coal", "name": "Muja B" }, "geometry": { "type": "Point", "coordinates": [ 116.3087, -33.4468 ] } },
{ "type": "Feature", "id": 32, "properties": { "primary_fuel": "Coal", "name": "Muja C" }, "geometry": { "type": "Point", "coordinates": [ 116.3062, -33.446 ] } },
{ "type": "Feature", "id": 33, "properties": { "primary_fuel": "Coal", "name": "Muja D" }, "geometry": { "type": "Point", "coordinates": [ 116.3074, -33.4464 ] } },
{ "type": "Feature", "id": 34, "properties": { "primary_fuel": "Coal", "name": "Munmorah" }, "geometry": { "type": "Point", "coordinates": [ 151.5418, -33.2117 ] } },
{ "type": "Feature", "id": 35, "properties": { "primary_fuel": "Coal", "name": "Northern" }, "geometry": { "type": "Point", "coordinates": [ 137.7882, -32.5433 ] } },
{ "type": "Feature", "id": 36, "properties": { "primary_fuel": "Coal", "name": "Redbank" }, "geometry": { "type": "Point", "coordinates": [ 151.0719, -32.5802 ] } },
{ "type": "Feature", "id": 37, "properties": { "primary_fuel": "Coal", "name": "Stanwell" }, "geometry": { "type": "Point", "coordinates": [ 150.3195, -23.5097 ] } },
{ "type": "Feature", "id": 38, "properties": { "primary_fuel": "Coal", "name": "Swanbank B" }, "geometry": { "type": "Point", "coordinates": [ 152.8145, -27.6601 ] } },
{ "type": "Feature", "id": 39, "properties": { "primary_fuel": "Coal", "name": "Tarong" }, "geometry": { "type": "Point", "coordinates": [ 151.9153, -26.7824 ] } },
{ "type": "Feature", "id": 40, "properties": { "primary_fuel": "Coal", "name": "Tarong North" }, "geometry": { "type": "Point", "coordinates": [ 151.9146, -26.7758 ] } },
{ "type": "Feature", "id": 41, "properties": { "primary_fuel": "Coal", "name": "Vales Point B" }, "geometry": { "type": "Point", "coordinates": [ 151.5431, -33.1607 ] } },
{ "type": "Feature", "id": 42, "properties": { "primary_fuel": "Coal", "name": "Wallerawang C" }, "geometry": { "type": "Point", "coordinates": [ 150.0833, -33.4028 ] } },
{ "type": "Feature", "id": 43, "properties": { "primary_fuel": "Coal", "name": "Worsley" }, "geometry": { "type": "Point", "coordinates": [ 116.0688, -33.2355 ] } },
{ "type": "Feature", "id": 44, "properties": { "primary_fuel": "Coal", "name": "Yallourn" }, "geometry": { "type": "Point", "coordinates": [ 146.3428, -38.177 ] } },
{ "type": "Feature", "id": 45, "properties": { "primary_fuel": "Coal", "name": "Barupukuria ST 1" }, "geometry": { "type": "Point", "coordinates": [ 88.9527, 25.5502 ] } },
{ "type": "Feature", "id": 46, "properties": { "primary_fuel": "Coal", "name": "LANGERLO 1" }, "geometry": { "type": "Point", "coordinates": [ 5.4906, 50.9405 ] } },
{ "type": "Feature", "id": 47, "properties": { "primary_fuel": "Coal", "name": "Gacko Coal CHP Power Plant Bosnia and Herzegovina" }, "geometry": { "type": "Point", "coordinates": [ 18.5128, 43.1724 ] } },
{ "type": "Feature", "id": 48, "properties": { "primary_fuel": "Coal", "name": "Kakanj CHP Power Plant Bosnia and Herzegovina" }, "geometry": { "type": "Point", "coordinates": [ 18.1143, 44.0899 ] } },
{ "type": "Feature", "id": 49, "properties": { "primary_fuel": "Coal", "name": "Tuzla CHP Power Plant Bosnia and Herzegovina" }, "geometry": { "type": "Point", "coordinates": [ 18.6056, 44.5215 ] } },
{ "type": "Feature", "id": 50, "properties": { "primary_fuel": "Coal", "name": "Ugljevik CHP Coal Power Plant Bosnia and Herzegovina" }, "geometry": { "type": "Point", "coordinates": [ 18.9671, 44.6829 ] } },
{ "type": "Feature", "id": 51, "properties": { "primary_fuel": "Coal", "name": "Morpule" }, "geometry": { "type": "Point", "coordinates": [ 27.0491, -22.5223 ] } },
{ "type": "Feature", "id": 52, "properties": { "primary_fuel": "Coal", "name": "Sua Pan Soda Ash" }, "geometry": { "type": "Point", "coordinates": [ 27.5167, -21.1667 ] } },
{ "type": "Feature", "id": 53, "properties": { "primary_fuel": "Coal", "name": "Alumar" }, "geometry": { "type": "Point", "coordinates": [ -44.3415, -2.7028 ] } },
{ "type": "Feature", "id": 54, "properties": { "primary_fuel": "Coal", "name": "Alunorte" }, "geometry": { "type": "Point", "coordinates": [ -48.723, -1.5374 ] } },
{ "type": "Feature", "id": 55, "properties": { "primary_fuel": "Coal", "name": "Açominas" }, "geometry": { "type": "Point", "coordinates": [ -43.6986, -20.5355 ] } },
{ "type": "Feature", "id": 56, "properties": { "primary_fuel": "Coal", "name": "Brasil Verde" }, "geometry": { "type": "Point", "coordinates": [ -44.8875, -19.749 ] } },
{ "type": "Feature", "id": 57, "properties": { "primary_fuel": "Coal", "name": "Candiota III" }, "geometry": { "type": "Point", "coordinates": [ -53.6566, -31.5458 ] } },
{ "type": "Feature", "id": 58, "properties": { "primary_fuel": "Coal", "name": "Cosima" }, "geometry": { "type": "Point", "coordinates": [ -45.428, -3.6875 ] } },
{ "type": "Feature", "id": 59, "properties": { "primary_fuel": "Coal", "name": "Cosipa II" }, "geometry": { "type": "Point", "coordinates": [ -46.3623, -23.8608 ] } },
{ "type": "Feature", "id": 60, "properties": { "primary_fuel": "Coal", "name": "Cosipar" }, "geometry": { "type": "Point", "coordinates": [ -49.1085, -5.365 ] } },
{ "type": "Feature", "id": 61, "properties": { "primary_fuel": "Coal", "name": "Figueira" }, "geometry": { "type": "Point", "coordinates": [ -50.3808, -23.8482 ] } },
{ "type": "Feature", "id": 62, "properties": { "primary_fuel": "Coal", "name": "Jorge Lacerda I e II" }, "geometry": { "type": "Point", "coordinates": [ -48.9485, -28.441 ] } },
{ "type": "Feature", "id": 63, "properties": { "primary_fuel": "Coal", "name": "Jorge Lacerda III" }, "geometry": { "type": "Point", "coordinates": [ -48.9485, -28.441 ] } },
{ "type": "Feature", "id": 64, "properties": { "primary_fuel": "Coal", "name": "Jorge Lacerda IV" }, "geometry": { "type": "Point", "coordinates": [ -48.9485, -28.441 ] } },
{ "type": "Feature", "id": 65, "properties": { "primary_fuel": "Coal", "name": "Metalsider" }, "geometry": { "type": "Point", "coordinates": [ -44.2034, -19.9669 ] } },
{ "type": "Feature", "id": 66, "properties": { "primary_fuel": "Coal", "name": "Negro de Fumo" }, "geometry": { "type": "Point", "coordinates": [ -46.4155, -23.891 ] } },
{ "type": "Feature", "id": 67, "properties": { "primary_fuel": "Coal", "name": "Porto do Itaqui (Antiga Termomaranhão)" }, "geometry": { "type": "Point", "coordinates": [ -44.2961, -2.5246 ] } },
{ "type": "Feature", "id": 68, "properties": { "primary_fuel": "Coal", "name": "Porto do Pecém II" }, "geometry": { "type": "Point", "coordinates": [ -38.8661, -3.5918 ] } },
{ "type": "Feature", "id": 69, "properties": { "primary_fuel": "Coal", "name": "Presidente Médici  A  B" }, "geometry": { "type": "Point", "coordinates": [ -53.6733, -31.5482 ] } },
{ "type": "Feature", "id": 70, "properties": { "primary_fuel": "Coal", "name": "São Jerônimo" }, "geometry": { "type": "Point", "coordinates": [ -51.7255, -29.9638 ] } },
{ "type": "Feature", "id": 71, "properties": { "primary_fuel": "Coal", "name": "TRT" }, "geometry": { "type": "Point", "coordinates": [ -44.0953, -22.5218 ] } },
{ "type": "Feature", "id": 72, "properties": { "primary_fuel": "Coal", "name": "AES Galabovo" }, "geometry": { "type": "Point", "coordinates": [ 25.9084, 42.1573 ] } },
{ "type": "Feature", "id": 73, "properties": { "primary_fuel": "Coal", "name": "Bobov Dol power station" }, "geometry": { "type": "Point", "coordinates": [ 23.0342, 42.2855 ] } },
{ "type": "Feature", "id": 74, "properties": { "primary_fuel": "Coal", "name": "Brikel power station" }, "geometry": { "type": "Point", "coordinates": [ 25.9072, 42.1551 ] } },
{ "type": "Feature", "id": 75, "properties": { "primary_fuel": "Coal", "name": "Deven power station" }, "geometry": { "type": "Point", "coordinates": [ 27.6327, 43.1964 ] } },
{ "type": "Feature", "id": 76, "properties": { "primary_fuel": "Coal", "name": "Maritsa 3 power station" }, "geometry": { "type": "Point", "coordinates": [ 25.6231, 42.0519 ] } },
{ "type": "Feature", "id": 77, "properties": { "primary_fuel": "Coal", "name": "Maritsa Itzok-2 power station" }, "geometry": { "type": "Point", "coordinates": [ 26.134, 42.2541 ] } },
{ "type": "Feature", "id": 78, "properties": { "primary_fuel": "Coal", "name": "Maritsa Itzok-3 power station" }, "geometry": { "type": "Point", "coordinates": [ 26.0025, 42.145 ] } },
{ "type": "Feature", "id": 79, "properties": { "primary_fuel": "Coal", "name": "RUSE" }, "geometry": { "type": "Point", "coordinates": [ 26.0093, 43.8662 ] } },
{ "type": "Feature", "id": 80, "properties": { "primary_fuel": "Coal", "name": "Republika power station" }, "geometry": { "type": "Point", "coordinates": [ 23.0784, 42.6064 ] } },
{ "type": "Feature", "id": 81, "properties": { "primary_fuel": "Coal", "name": "TOPLO RUSE" }, "geometry": { "type": "Point", "coordinates": [ 26.136, 42.2569 ] } },
{ "type": "Feature", "id": 82, "properties": { "primary_fuel": "Coal", "name": "Vidin Works power station" }, "geometry": { "type": "Point", "coordinates": [ 22.8509, 43.9484 ] } },
{ "type": "Feature", "id": 83, "properties": { "primary_fuel": "Coal", "name": "Sihanoukville CEL power station" }, "geometry": { "type": "Point", "coordinates": [ 103.5808, 10.7402 ] } },
{ "type": "Feature", "id": 84, "properties": { "primary_fuel": "Coal", "name": "Sihanoukville CIIDG power station" }, "geometry": { "type": "Point", "coordinates": [ 103.5835, 10.7326 ] } },
{ "type": "Feature", "id": 85, "properties": { "primary_fuel": "Coal", "name": "Battle River" }, "geometry": { "type": "Point", "coordinates": [ -112.1339, 52.4685 ] } },
{ "type": "Feature", "id": 86, "properties": { "primary_fuel": "Coal", "name": "Belledune" }, "geometry": { "type": "Point", "coordinates": [ -65.863, 47.9073 ] } },
{ "type": "Feature", "id": 87, "properties": { "primary_fuel": "Coal", "name": "Boundary Dam" }, "geometry": { "type": "Point", "coordinates": [ -103.0305, 49.0961 ] } },
{ "type": "Feature", "id": 88, "properties": { "primary_fuel": "Coal", "name": "Brandon" }, "geometry": { "type": "Point", "coordinates": [ -99.8918, 49.8453 ] } },
{ "type": "Feature", "id": 89, "properties": { "primary_fuel": "Coal", "name": "Genesee" }, "geometry": { "type": "Point", "coordinates": [ -114.3049, 53.3446 ] } },
{ "type": "Feature", "id": 90, "properties": { "primary_fuel": "Coal", "name": "H R Milner" }, "geometry": { "type": "Point", "coordinates": [ -119.1032, 54.0071 ] } },
{ "type": "Feature", "id": 91, "properties": { "primary_fuel": "Coal", "name": "Keephills" }, "geometry": { "type": "Point", "coordinates": [ -114.4501, 53.4487 ] } },
{ "type": "Feature", "id": 92, "properties": { "primary_fuel": "Coal", "name": "Lingan" }, "geometry": { "type": "Point", "coordinates": [ -60.039, 46.2358 ] } },
{ "type": "Feature", "id": 93, "properties": { "primary_fuel": "Coal", "name": "Point Aconi" }, "geometry": { "type": "Point", "coordinates": [ -60.3295, 46.3216 ] } },
{ "type": "Feature", "id": 94, "properties": { "primary_fuel": "Coal", "name": "Point Tupper" }, "geometry": { "type": "Point", "coordinates": [ -61.3483, 45.587 ] } },
{ "type": "Feature", "id": 95, "properties": { "primary_fuel": "Coal", "name": "Poplar River" }, "geometry": { "type": "Point", "coordinates": [ -105.4851, 49.0579 ] } },
{ "type": "Feature", "id": 96, "properties": { "primary_fuel": "Coal", "name": "Shand" }, "geometry": { "type": "Point", "coordinates": [ -102.8641, 49.0751 ] } },
{ "type": "Feature", "id": 97, "properties": { "primary_fuel": "Coal", "name": "Sheerness" }, "geometry": { "type": "Point", "coordinates": [ -111.7919, 51.4426 ] } },
{ "type": "Feature", "id": 98, "properties": { "primary_fuel": "Coal", "name": "Sundance" }, "geometry": { "type": "Point", "coordinates": [ -114.5569, 53.5075 ] } },
{ "type": "Feature", "id": 99, "properties": { "primary_fuel": "Coal", "name": "Trenton" }, "geometry": { "type": "Point", "coordinates": [ -62.6481, 45.6211 ] } },
{ "type": "Feature", "id": 100, "properties": { "primary_fuel": "Coal", "name": "BOCAMINA (I-II)" }, "geometry": { "type": "Point", "coordinates": [ -73.1673, -37.0215 ] } },
{ "type": "Feature", "id": 101, "properties": { "primary_fuel": "Coal", "name": "CAMPICHE" }, "geometry": { "type": "Point", "coordinates": [ -71.4833, -32.7483 ] } },
{ "type": "Feature", "id": 102, "properties": { "primary_fuel": "Coal", "name": "DIESEL IQUIQUE(MSIQ_TGIQ)" }, "geometry": { "type": "Point", "coordinates": [ -70.1273, -20.258 ] } },
{ "type": "Feature", "id": 103, "properties": { "primary_fuel": "Coal", "name": "GUACOLDA" }, "geometry": { "type": "Point", "coordinates": [ -71.2573, -28.4673 ] } },
{ "type": "Feature", "id": 104, "properties": { "primary_fuel": "Coal", "name": "NUEVA VENTANAS" }, "geometry": { "type": "Point", "coordinates": [ -71.4832, -32.7498 ] } },
{ "type": "Feature", "id": 105, "properties": { "primary_fuel": "Coal", "name": "PLANTA CURICO" }, "geometry": { "type": "Point", "coordinates": [ -71.2436, -35.0207 ] } },
{ "type": "Feature", "id": 106, "properties": { "primary_fuel": "Coal", "name": "SANTA MARIA" }, "geometry": { "type": "Point", "coordinates": [ -73.13, -37.042 ] } },
{ "type": "Feature", "id": 107, "properties": { "primary_fuel": "Coal", "name": "TERMOELECTRICA ANGAMOS 1(ANG1)_ 2(ANG2)" }, "geometry": { "type": "Point", "coordinates": [ -70.369, -23.0677 ] } },
{ "type": "Feature", "id": 108, "properties": { "primary_fuel": "Coal", "name": "TERMOELECTRICA HORNITOS (CTH)" }, "geometry": { "type": "Point", "coordinates": [ -70.2633, -32.9006 ] } },
{ "type": "Feature", "id": 109, "properties": { "primary_fuel": "Coal", "name": "TERMOELECTRICA MEJILLONES (CTM1)" }, "geometry": { "type": "Point", "coordinates": [ -70.41, -23.0854 ] } },
{ "type": "Feature", "id": 110, "properties": { "primary_fuel": "Coal", "name": "TERMOELECTRICA NORGENER (NTO2)" }, "geometry": { "type": "Point", "coordinates": [ -70.2109, -22.097 ] } },
{ "type": "Feature", "id": 111, "properties": { "primary_fuel": "Coal", "name": "TERMOELECTRICA TARAPACA" }, "geometry": { "type": "Point", "coordinates": [ -70.1928, -20.8057 ] } },
{ "type": "Feature", "id": 112, "properties": { "primary_fuel": "Coal", "name": "TERMOELECTRICA TOCOPILLA (U12)" }, "geometry": { "type": "Point", "coordinates": [ -70.2126, -22.091 ] } },
{ "type": "Feature", "id": 113, "properties": { "primary_fuel": "Coal", "name": "VENTANAS" }, "geometry": { "type": "Point", "coordinates": [ -71.4812, -32.7493 ] } },
{ "type": "Feature", "id": 114, "properties": { "primary_fuel": "Coal", "name": "APP Zhenjiang Jindong Mill power station" }, "geometry": { "type": "Point", "coordinates": [ 119.6998, 32.1944 ] } },
{ "type": "Feature", "id": 115, "properties": { "primary_fuel": "Coal", "name": "Aksu Cogen power station" }, "geometry": { "type": "Point", "coordinates": [ 80.3997, 41.1542 ] } },
{ "type": "Feature", "id": 116, "properties": { "primary_fuel": "Coal", "name": "Aksu Xuzhou power station" }, "geometry": { "type": "Point", "coordinates": [ 80.1685, 41.0791 ] } },
{ "type": "Feature", "id": 117, "properties": { "primary_fuel": "Coal", "name": "Alashan Left Qi Wusitai power station" }, "geometry": { "type": "Point", "coordinates": [ 106.6676, 39.4463 ] } },
{ "type": "Feature", "id": 118, "properties": { "primary_fuel": "Coal", "name": "Anda Cogen power station" }, "geometry": { "type": "Point", "coordinates": [ 125.2982, 46.3996 ] } },
{ "type": "Feature", "id": 119, "properties": { "primary_fuel": "Coal", "name": "Anhui Bengbu power station" }, "geometry": { "type": "Point", "coordinates": [ 117.115, 32.7845 ] } },
{ "type": "Feature", "id": 120, "properties": { "primary_fuel": "Coal", "name": "Anhui Hwasu power station" }, "geometry": { "type": "Point", "coordinates": [ 117.2532, 32.5856 ] } },
{ "type": "Feature", "id": 121, "properties": { "primary_fuel": "Coal", "name": "Anhui Xuancheng power station" }, "geometry": { "type": "Point", "coordinates": [ 118.8648, 30.8695 ] } },
{ "type": "Feature", "id": 122, "properties": { "primary_fuel": "Coal", "name": "Anshan Steel Company No 2 power station" }, "geometry": { "type": "Point", "coordinates": [ 122.9649, 41.133 ] } },
{ "type": "Feature", "id": 123, "properties": { "primary_fuel": "Coal", "name": "Anwen Songzao power station" }, "geometry": { "type": "Point", "coordinates": [ 106.7531, 28.6411 ] } },
{ "type": "Feature", "id": 124, "properties": { "primary_fuel": "Coal", "name": "Aoweiqianyuan Captive power station" }, "geometry": { "type": "Point", "coordinates": [ 111.143, 39.2507 ] } },
{ "type": "Feature", "id": 125, "properties": { "primary_fuel": "Coal", "name": "Aral Xinhu Cogen power station" }, "geometry": { "type": "Point", "coordinates": [ 81.1955, 40.5897 ] } },
{ "type": "Feature", "id": 126, "properties": { "primary_fuel": "Coal", "name": "Baguanhe Washery power station" }, "geometry": { "type": "Point", "coordinates": [ 101.6119, 26.5957 ] } },
{ "type": "Feature", "id": 127, "properties": { "primary_fuel": "Coal", "name": "Baise Coal" }, "geometry": { "type": "Point", "coordinates": [ 106.8155, 23.7882 ] } },
{ "type": "Feature", "id": 128, "properties": { "primary_fuel": "Coal", "name": "Baise Smelter power station" }, "geometry": { "type": "Point", "coordinates": [ 106.8202, 23.7857 ] } },
{ "type": "Feature", "id": 129, "properties": { "primary_fuel": "Coal", "name": "Baise Tianyang power station" }, "geometry": { "type": "Point", "coordinates": [ 106.815, 23.7883 ] } },
{ "type": "Feature", "id": 130, "properties": { "primary_fuel": "Coal", "name": "Baishan - Hunjiang 2 Coal" }, "geometry": { "type": "Point", "coordinates": [ 126.473, 41.97 ] } },
{ "type": "Feature", "id": 131, "properties": { "primary_fuel": "Coal", "name": "Baitao cogen power station" }, "geometry": { "type": "Point", "coordinates": [ 107.5165, 29.5856 ] } },
{ "type": "Feature", "id": 132, "properties": { "primary_fuel": "Coal", "name": "Baiyanghe power station" }, "geometry": { "type": "Point", "coordinates": [ 117.8427, 36.4719 ] } },
{ "type": "Feature", "id": 133, "properties": { "primary_fuel": "Coal", "name": "Banshan Coal" }, "geometry": { "type": "Point", "coordinates": [ 120.1435, 30.3612 ] } },
{ "type": "Feature", "id": 134, "properties": { "primary_fuel": "Coal", "name": "Baoding Northwest Suberb power station" }, "geometry": { "type": "Point", "coordinates": [ 115.3672, 38.9618 ] } },
{ "type": "Feature", "id": 135, "properties": { "primary_fuel": "Coal", "name": "Baoshan Works power station" }, "geometry": { "type": "Point", "coordinates": [ 121.4361, 31.4424 ] } },
{ "type": "Feature", "id": 136, "properties": { "primary_fuel": "Coal", "name": "Baosteel Zhanjiang power station" }, "geometry": { "type": "Point", "coordinates": [ 110.494, 21.0699 ] } },
{ "type": "Feature", "id": 137, "properties": { "primary_fuel": "Coal", "name": "Baotou Aluminum power station" }, "geometry": { "type": "Point", "coordinates": [ 110.1484, 40.5572 ] } },
{ "type": "Feature", "id": 138, "properties": { "primary_fuel": "Coal", "name": "Baotou Donghua power station" }, "geometry": { "type": "Point", "coordinates": [ 110.0738, 40.5781 ] } },
{ "type": "Feature", "id": 139, "properties": { "primary_fuel": "Coal", "name": "Baotou East Hope power station" }, "geometry": { "type": "Point", "coordinates": [ 109.7828, 40.5956 ] } },
{ "type": "Feature", "id": 140, "properties": { "primary_fuel": "Coal", "name": "Baotou Hexi power station" }, "geometry": { "type": "Point", "coordinates": [ 109.79, 40.5694 ] } },
{ "type": "Feature", "id": 141, "properties": { "primary_fuel": "Coal", "name": "Baotou Olefins power station" }, "geometry": { "type": "Point", "coordinates": [ 109.6368, 40.6081 ] } },
{ "type": "Feature", "id": 142, "properties": { "primary_fuel": "Coal", "name": "Baotou Works power station" }, "geometry": { "type": "Point", "coordinates": [ 109.7585, 40.6601 ] } },
{ "type": "Feature", "id": 143, "properties": { "primary_fuel": "Coal", "name": "Baqiao power station" }, "geometry": { "type": "Point", "coordinates": [ 109.0496, 34.2851 ] } },
{ "type": "Feature", "id": 144, "properties": { "primary_fuel": "Coal", "name": "Bayanhua Jinshan power station" }, "geometry": { "type": "Point", "coordinates": [ 118.7082, 44.9317 ] } },
{ "type": "Feature", "id": 145, "properties": { "primary_fuel": "Coal", "name": "Beian power station" }, "geometry": { "type": "Point", "coordinates": [ 126.5287, 48.2328 ] } },
{ "type": "Feature", "id": 146, "properties": { "primary_fuel": "Coal", "name": "Beihai Bebuwan power station" }, "geometry": { "type": "Point", "coordinates": [ 109.581, 21.5821 ] } },
{ "type": "Feature", "id": 147, "properties": { "primary_fuel": "Coal", "name": "Beihai New Area Heating power station" }, "geometry": { "type": "Point", "coordinates": [ 117.9726, 38.0229 ] } },
{ "type": "Feature", "id": 148, "properties": { "primary_fuel": "Coal", "name": "Beijing - Shijingshan Coal" }, "geometry": { "type": "Point", "coordinates": [ 116.1375, 39.923 ] } },
{ "type": "Feature", "id": 149, "properties": { "primary_fuel": "Coal", "name": "Beitun Cogen power station" }, "geometry": { "type": "Point", "coordinates": [ 87.7678, 47.325 ] } },
{ "type": "Feature", "id": 150, "properties": { "primary_fuel": "Coal", "name": "Bijie power station" }, "geometry": { "type": "Point", "coordinates": [ 105.3479, 27.2765 ] } },
{ "type": "Feature", "id": 151, "properties": { "primary_fuel": "Coal", "name": "Binhai Port Unit 1" }, "geometry": { "type": "Point", "coordinates": [ 120.2469, 34.3071 ] } },
{ "type": "Feature", "id": 152, "properties": { "primary_fuel": "Coal", "name": "Binzhou - Huji 1-4 Coal" }, "geometry": { "type": "Point", "coordinates": [ 117.7784, 37.3495 ] } },
{ "type": "Feature", "id": 153, "properties": { "primary_fuel": "Coal", "name": "Binzhou Heating Supply Center power station" }, "geometry": { "type": "Point", "coordinates": [ 117.8909, 37.3482 ] } },
{ "type": "Feature", "id": 154, "properties": { "primary_fuel": "Coal", "name": "Bohe Coal" }, "geometry": { "type": "Point", "coordinates": [ 112.1079, 22.9657 ] } },
{ "type": "Feature", "id": 155, "properties": { "primary_fuel": "Coal", "name": "Bole Cogen power station" }, "geometry": { "type": "Point", "coordinates": [ 82.1179, 44.8617 ] } },
{ "type": "Feature", "id": 156, "properties": { "primary_fuel": "Coal", "name": "Bulian power station" }, "geometry": { "type": "Point", "coordinates": [ 109.9682, 39.3012 ] } },
{ "type": "Feature", "id": 157, "properties": { "primary_fuel": "Coal", "name": "CHALCO Shandong Branch Power Station" }, "geometry": { "type": "Point", "coordinates": [ 118.0694, 36.7484 ] } },
{ "type": "Feature", "id": 158, "properties": { "primary_fuel": "Coal", "name": "CKI Lamma power station" }, "geometry": { "type": "Point", "coordinates": [ 114.1082, 22.2185 ] } },
{ "type": "Feature", "id": 159, "properties": { "primary_fuel": "Coal", "name": "CNPC Fushun Petrochemical power station" }, "geometry": { "type": "Point", "coordinates": [ 124.0455, 41.8275 ] } },
{ "type": "Feature", "id": 160, "properties": { "primary_fuel": "Coal", "name": "CPI Baicheng power station" }, "geometry": { "type": "Point", "coordinates": [ 122.7759, 45.5261 ] } },
{ "type": "Feature", "id": 161, "properties": { "primary_fuel": "Coal", "name": "CPI Changshu-1 power station" }, "geometry": { "type": "Point", "coordinates": [ 120.9731, 31.7563 ] } },
{ "type": "Feature", "id": 162, "properties": { "primary_fuel": "Coal", "name": "CPI Chifeng Daban power station" }, "geometry": { "type": "Point", "coordinates": [ 118.7119, 43.5893 ] } },
{ "type": "Feature", "id": 163, "properties": { "primary_fuel": "Coal", "name": "CPI Chifeng New City Region power station" }, "geometry": { "type": "Point", "coordinates": [ 118.9133, 42.2934 ] } },
{ "type": "Feature", "id": 164, "properties": { "primary_fuel": "Coal", "name": "CPI Dabieshan power station" }, "geometry": { "type": "Point", "coordinates": [ 114.8922, 31.1419 ] } },
{ "type": "Feature", "id": 165, "properties": { "primary_fuel": "Coal", "name": "CPI Fenyi power station" }, "geometry": { "type": "Point", "coordinates": [ 114.6173, 27.7754 ] } },
{ "type": "Feature", "id": 166, "properties": { "primary_fuel": "Coal", "name": "CPI Huolinhe power station" }, "geometry": { "type": "Point", "coordinates": [ 119.5386, 45.4616 ] } },
{ "type": "Feature", "id": 167, "properties": { "primary_fuel": "Coal", "name": "CPI Nanyang power station" }, "geometry": { "type": "Point", "coordinates": [ 112.5108, 33.0306 ] } },
{ "type": "Feature", "id": 168, "properties": { "primary_fuel": "Coal", "name": "CPI Ningxia Zaoquan power station" }, "geometry": { "type": "Point", "coordinates": [ 106.6058, 38.0462 ] } },
{ "type": "Feature", "id": 169, "properties": { "primary_fuel": "Coal", "name": "CPI Pingwei power station" }, "geometry": { "type": "Point", "coordinates": [ 116.9021, 32.6842 ] } },
{ "type": "Feature", "id": 170, "properties": { "primary_fuel": "Coal", "name": "CPI Qinghe power station" }, "geometry": { "type": "Point", "coordinates": [ 124.1403, 42.5299 ] } },
{ "type": "Feature", "id": 171, "properties": { "primary_fuel": "Coal", "name": "CPI Shanxi Houma power station" }, "geometry": { "type": "Point", "coordinates": [ 111.3757, 35.5911 ] } },
{ "type": "Feature", "id": 172, "properties": { "primary_fuel": "Coal", "name": "CPI Shentou power station" }, "geometry": { "type": "Point", "coordinates": [ 112.4887, 39.5508 ] } },
{ "type": "Feature", "id": 173, "properties": { "primary_fuel": "Coal", "name": "CPI Wusu power station" }, "geometry": { "type": "Point", "coordinates": [ 84.7608, 44.4364 ] } },
{ "type": "Feature", "id": 174, "properties": { "primary_fuel": "Coal", "name": "CPI Xinchang power station" }, "geometry": { "type": "Point", "coordinates": [ 115.9764, 28.8612 ] } },
{ "type": "Feature", "id": 175, "properties": { "primary_fuel": "Coal", "name": "CPI Xining power station" }, "geometry": { "type": "Point", "coordinates": [ 101.4936, 36.5847 ] } },
{ "type": "Feature", "id": 176, "properties": { "primary_fuel": "Coal", "name": "CPI Zhongwei Cogen power station" }, "geometry": { "type": "Point", "coordinates": [ 105.235, 37.623 ] } },
{ "type": "Feature", "id": 177, "properties": { "primary_fuel": "Coal", "name": "CR Changzhou power station" }, "geometry": { "type": "Point", "coordinates": [ 119.9921, 31.9576 ] } },
{ "type": "Feature", "id": 178, "properties": { "primary_fuel": "Coal", "name": "CR Liuzhi power station" }, "geometry": { "type": "Point", "coordinates": [ 105.395, 26.3883 ] } },
{ "type": "Feature", "id": 179, "properties": { "primary_fuel": "Coal", "name": "Cangzhou Bohai power station" }, "geometry": { "type": "Point", "coordinates": [ 117.6248, 38.3617 ] } },
{ "type": "Feature", "id": 180, "properties": { "primary_fuel": "Coal", "name": "Cangzhou power station" }, "geometry": { "type": "Point", "coordinates": [ 116.8168, 38.3658 ] } },
{ "type": "Feature", "id": 181, "properties": { "primary_fuel": "Coal", "name": "Caofeidian Works power station" }, "geometry": { "type": "Point", "coordinates": [ 118.4927, 38.9446 ] } },
{ "type": "Feature", "id": 182, "properties": { "primary_fuel": "Coal", "name": "Castle Peak power station" }, "geometry": { "type": "Point", "coordinates": [ 113.9214, 22.376 ] } },
{ "type": "Feature", "id": 183, "properties": { "primary_fuel": "Coal", "name": "Changchun Southeast power station" }, "geometry": { "type": "Point", "coordinates": [ 125.5693, 43.651 ] } },
{ "type": "Feature", "id": 184, "properties": { "primary_fuel": "Coal", "name": "Changchun-2 power station" }, "geometry": { "type": "Point", "coordinates": [ 125.3942, 43.8835 ] } },
{ "type": "Feature", "id": 185, "properties": { "primary_fuel": "Coal", "name": "Changchun-3 power station" }, "geometry": { "type": "Point", "coordinates": [ 125.1429, 43.7778 ] } },
{ "type": "Feature", "id": 186, "properties": { "primary_fuel": "Coal", "name": "Changde Coal" }, "geometry": { "type": "Point", "coordinates": [ 111.5607, 29.197 ] } },
{ "type": "Feature", "id": 187, "properties": { "primary_fuel": "Coal", "name": "Changji Coal" }, "geometry": { "type": "Point", "coordinates": [ 87.3125, 43.9914 ] } },
{ "type": "Feature", "id": 188, "properties": { "primary_fuel": "Coal", "name": "Changji Fukang power station" }, "geometry": { "type": "Point", "coordinates": [ 88.017, 44.1419 ] } },
{ "type": "Feature", "id": 189, "properties": { "primary_fuel": "Coal", "name": "Changshu-2 power station" }, "geometry": { "type": "Point", "coordinates": [ 120.979, 31.7578 ] } },
{ "type": "Feature", "id": 190, "properties": { "primary_fuel": "Coal", "name": "Changxing Island Hengli Petrochemical power station" }, "geometry": { "type": "Point", "coordinates": [ 121.2547, 39.5742 ] } },
{ "type": "Feature", "id": 191, "properties": { "primary_fuel": "Coal", "name": "Changzhi Tunliu power station" }, "geometry": { "type": "Point", "coordinates": [ 112.8506, 36.3653 ] } },
{ "type": "Feature", "id": 192, "properties": { "primary_fuel": "Coal", "name": "Changzhi power station" }, "geometry": { "type": "Point", "coordinates": [ 113.0116, 36.1926 ] } },
{ "type": "Feature", "id": 193, "properties": { "primary_fuel": "Coal", "name": "Changzhou Zhongtian Iron & Steel power station" }, "geometry": { "type": "Point", "coordinates": [ 120.0878, 31.7078 ] } },
{ "type": "Feature", "id": 194, "properties": { "primary_fuel": "Coal", "name": "Chaoyang Yanshanhu power station" }, "geometry": { "type": "Point", "coordinates": [ 120.3194, 41.5065 ] } },
{ "type": "Feature", "id": 195, "properties": { "primary_fuel": "Coal", "name": "Chaozhou Sanbaimen power station" }, "geometry": { "type": "Point", "coordinates": [ 117.0973, 23.5655 ] } },
{ "type": "Feature", "id": 196, "properties": { "primary_fuel": "Coal", "name": "Chengfeng Cogen power station" }, "geometry": { "type": "Point", "coordinates": [ 112.9666, 36.4996 ] } },
{ "type": "Feature", "id": 197, "properties": { "primary_fuel": "Coal", "name": "Chifeng Yuanbaoshan power station" }, "geometry": { "type": "Point", "coordinates": [ 119.325, 42.3033 ] } },
{ "type": "Feature", "id": 198, "properties": { "primary_fuel": "Coal", "name": "China Resources Caofeidian power station" }, "geometry": { "type": "Point", "coordinates": [ 118.4877, 38.9962 ] } },
{ "type": "Feature", "id": 199, "properties": { "primary_fuel": "Coal", "name": "China Resources Dengkou power station" }, "geometry": { "type": "Point", "coordinates": [ 107.004, 40.3838 ] } },
{ "type": "Feature", "id": 200, "properties": { "primary_fuel": "Coal", "name": "China Resources Gucheng power station" }, "geometry": { "type": "Point", "coordinates": [ 114.0436, 32.872 ] } },
{ "type": "Feature", "id": 201, "properties": { "primary_fuel": "Coal", "name": "Chiping Haoji power station" }, "geometry": { "type": "Point", "coordinates": [ 116.3336, 36.4865 ] } },
{ "type": "Feature", "id": 202, "properties": { "primary_fuel": "Coal", "name": "Chiping Xinfa power station" }, "geometry": { "type": "Point", "coordinates": [ 116.2456, 36.6079 ] } },
{ "type": "Feature", "id": 203, "properties": { "primary_fuel": "Coal", "name": "Chizhou Jiuhua power station" }, "geometry": { "type": "Point", "coordinates": [ 117.5909, 30.7524 ] } },
{ "type": "Feature", "id": 204, "properties": { "primary_fuel": "Coal", "name": "Chongqing Baihe power station" }, "geometry": { "type": "Point", "coordinates": [ 108.4561, 31.2691 ] } },
{ "type": "Feature", "id": 205, "properties": { "primary_fuel": "Coal", "name": "Chongqing Coal" }, "geometry": { "type": "Point", "coordinates": [ 106.5395, 29.4844 ] } },
{ "type": "Feature", "id": 206, "properties": { "primary_fuel": "Coal", "name": "Chongqing Lee & Man Paper power station" }, "geometry": { "type": "Point", "coordinates": [ 105.855, 29.0363 ] } },
{ "type": "Feature", "id": 207, "properties": { "primary_fuel": "Coal", "name": "Chongqing Longqiao power station" }, "geometry": { "type": "Point", "coordinates": [ 107.304, 29.7079 ] } },
{ "type": "Feature", "id": 208, "properties": { "primary_fuel": "Coal", "name": "Chongqing Nine Dragons Cogen power station" }, "geometry": { "type": "Point", "coordinates": [ 106.3968, 29.2918 ] } },
{ "type": "Feature", "id": 209, "properties": { "primary_fuel": "Coal", "name": "Chongqing Qineng power station" }, "geometry": { "type": "Point", "coordinates": [ 106.5688, 29.0043 ] } },
{ "type": "Feature", "id": 210, "properties": { "primary_fuel": "Coal", "name": "Chongqing Shizhu power station" }, "geometry": { "type": "Point", "coordinates": [ 108.2201, 30.3907 ] } },
{ "type": "Feature", "id": 211, "properties": { "primary_fuel": "Coal", "name": "Chongqing Shuanghuai power station" }, "geometry": { "type": "Point", "coordinates": [ 106.5474, 30.1621 ] } },
{ "type": "Feature", "id": 212, "properties": { "primary_fuel": "Coal", "name": "Chuangyuan Smelter power station" }, "geometry": { "type": "Point", "coordinates": [ 119.4275, 45.4373 ] } },
{ "type": "Feature", "id": 213, "properties": { "primary_fuel": "Coal", "name": "Daba power station" }, "geometry": { "type": "Point", "coordinates": [ 105.9258, 37.9897 ] } },
{ "type": "Feature", "id": 214, "properties": { "primary_fuel": "Coal", "name": "Dabu Coal" }, "geometry": { "type": "Point", "coordinates": [ 113.5831, 24.5852 ] } },
{ "type": "Feature", "id": 215, "properties": { "primary_fuel": "Coal", "name": "Dafang power station" }, "geometry": { "type": "Point", "coordinates": [ 105.5658, 27.1014 ] } },
{ "type": "Feature", "id": 216, "properties": { "primary_fuel": "Coal", "name": "Daihai power station" }, "geometry": { "type": "Point", "coordinates": [ 112.6674, 40.5204 ] } },
{ "type": "Feature", "id": 217, "properties": { "primary_fuel": "Coal", "name": "Dalate power station" }, "geometry": { "type": "Point", "coordinates": [ 109.997, 40.367 ] } },
{ "type": "Feature", "id": 218, "properties": { "primary_fuel": "Coal", "name": "Dalian ETDC power station" }, "geometry": { "type": "Point", "coordinates": [ 121.8157, 39.0353 ] } },
{ "type": "Feature", "id": 219, "properties": { "primary_fuel": "Coal", "name": "Dalian Ganjingzi power station" }, "geometry": { "type": "Point", "coordinates": [ 121.5494, 39.0262 ] } },
{ "type": "Feature", "id": 220, "properties": { "primary_fuel": "Coal", "name": "Dalian Taishan power station" }, "geometry": { "type": "Point", "coordinates": [ 121.5535, 38.9081 ] } },
{ "type": "Feature", "id": 221, "properties": { "primary_fuel": "Coal", "name": "Dandong Jinshan power station" }, "geometry": { "type": "Point", "coordinates": [ 124.3192, 40.1055 ] } },
{ "type": "Feature", "id": 222, "properties": { "primary_fuel": "Coal", "name": "Dangtang Shendong power station" }, "geometry": { "type": "Point", "coordinates": [ 123.6365, 41.7566 ] } },
{ "type": "Feature", "id": 223, "properties": { "primary_fuel": "Coal", "name": "Daqing Ethylene Plant power station" }, "geometry": { "type": "Point", "coordinates": [ 125.2246, 46.4449 ] } },
{ "type": "Feature", "id": 224, "properties": { "primary_fuel": "Coal", "name": "Daqing Oil Central power station" }, "geometry": { "type": "Point", "coordinates": [ 125.0734, 46.5524 ] } },
{ "type": "Feature", "id": 225, "properties": { "primary_fuel": "Coal", "name": "Daqing Oil Hongwei power station" }, "geometry": { "type": "Point", "coordinates": [ 124.8213, 46.5749 ] } },
{ "type": "Feature", "id": 226, "properties": { "primary_fuel": "Coal", "name": "Datang 803 power station" }, "geometry": { "type": "Point", "coordinates": [ 97.359, 40.2089 ] } },
{ "type": "Feature", "id": 227, "properties": { "primary_fuel": "Coal", "name": "Datang Anhui Huainan Tianjiaan power station" }, "geometry": { "type": "Point", "coordinates": [ 117.0253, 32.6691 ] } },
{ "type": "Feature", "id": 228, "properties": { "primary_fuel": "Coal", "name": "Datang Anyang-2 power station" }, "geometry": { "type": "Point", "coordinates": [ 114.2758, 36.1195 ] } },
{ "type": "Feature", "id": 229, "properties": { "primary_fuel": "Coal", "name": "Datang Baoding cogen power station" }, "geometry": { "type": "Point", "coordinates": [ 115.4332, 38.8753 ] } },
{ "type": "Feature", "id": 230, "properties": { "primary_fuel": "Coal", "name": "Datang Baoji power station" }, "geometry": { "type": "Point", "coordinates": [ 107.2942, 34.3819 ] } },
{ "type": "Feature", "id": 231, "properties": { "primary_fuel": "Coal", "name": "Datang Binchang power station" }, "geometry": { "type": "Point", "coordinates": [ 107.9315, 35.1359 ] } },
{ "type": "Feature", "id": 232, "properties": { "primary_fuel": "Coal", "name": "Datang Binzhou power station" }, "geometry": { "type": "Point", "coordinates": [ 118.047, 37.4674 ] } },
{ "type": "Feature", "id": 233, "properties": { "primary_fuel": "Coal", "name": "Datang Changshan power station" }, "geometry": { "type": "Point", "coordinates": [ 124.4893, 45.317 ] } },
{ "type": "Feature", "id": 234, "properties": { "primary_fuel": "Coal", "name": "Datang Fuzhou power station" }, "geometry": { "type": "Point", "coordinates": [ 116.5638, 27.7855 ] } },
{ "type": "Feature", "id": 235, "properties": { "primary_fuel": "Coal", "name": "Datang Gangu power station" }, "geometry": { "type": "Point", "coordinates": [ 105.1008, 34.7557 ] } },
{ "type": "Feature", "id": 236, "properties": { "primary_fuel": "Coal", "name": "Datang Harbin power station" }, "geometry": { "type": "Point", "coordinates": [ 126.4655, 45.7117 ] } },
{ "type": "Feature", "id": 237, "properties": { "primary_fuel": "Coal", "name": "Datang Heshan power station" }, "geometry": { "type": "Point", "coordinates": [ 108.8669, 23.8218 ] } },
{ "type": "Feature", "id": 238, "properties": { "primary_fuel": "Coal", "name": "Datang Hunchun power station" }, "geometry": { "type": "Point", "coordinates": [ 130.2891, 42.8953 ] } },
{ "type": "Feature", "id": 239, "properties": { "primary_fuel": "Coal", "name": "Datang Hutubi power station" }, "geometry": { "type": "Point", "coordinates": [ 86.8229, 44.1508 ] } },
{ "type": "Feature", "id": 240, "properties": { "primary_fuel": "Coal", "name": "Datang Jingtai power station" }, "geometry": { "type": "Point", "coordinates": [ 104.1681, 37.2316 ] } },
{ "type": "Feature", "id": 241, "properties": { "primary_fuel": "Coal", "name": "Datang Liancheng-2 power station" }, "geometry": { "type": "Point", "coordinates": [ 102.8682, 36.5195 ] } },
{ "type": "Feature", "id": 242, "properties": { "primary_fuel": "Coal", "name": "Datang Linzhou power station" }, "geometry": { "type": "Point", "coordinates": [ 113.8627, 36.1087 ] } },
{ "type": "Feature", "id": 243, "properties": { "primary_fuel": "Coal", "name": "Datang Lueyang power station" }, "geometry": { "type": "Point", "coordinates": [ 106.1422, 33.3467 ] } },
{ "type": "Feature", "id": 244, "properties": { "primary_fuel": "Coal", "name": "Datang Luoyang Shouyangshan power station" }, "geometry": { "type": "Point", "coordinates": [ 112.7554, 34.7325 ] } },
{ "type": "Feature", "id": 245, "properties": { "primary_fuel": "Coal", "name": "Datang Luoyang power station" }, "geometry": { "type": "Point", "coordinates": [ 112.3777, 34.682 ] } },
{ "type": "Feature", "id": 246, "properties": { "primary_fuel": "Coal", "name": "Datang Maanshan Dangtu power station" }, "geometry": { "type": "Point", "coordinates": [ 118.4139, 31.5347 ] } },
{ "type": "Feature", "id": 247, "properties": { "primary_fuel": "Coal", "name": "Datang Matou power station" }, "geometry": { "type": "Point", "coordinates": [ 114.4246, 36.4873 ] } },
{ "type": "Feature", "id": 248, "properties": { "primary_fuel": "Coal", "name": "Datang Nanjing Xiaguan-3 power station" }, "geometry": { "type": "Point", "coordinates": [ 119.2096, 32.2127 ] } },
{ "type": "Feature", "id": 249, "properties": { "primary_fuel": "Coal", "name": "Datang Ningde power station" }, "geometry": { "type": "Point", "coordinates": [ 119.7359, 26.7575 ] } },
{ "type": "Feature", "id": 250, "properties": { "primary_fuel": "Coal", "name": "Datang Qingyuan power station" }, "geometry": { "type": "Point", "coordinates": [ 115.481, 38.7954 ] } },
{ "type": "Feature", "id": 251, "properties": { "primary_fuel": "Coal", "name": "Datang Qitaihe power station" }, "geometry": { "type": "Point", "coordinates": [ 131.0536, 45.7596 ] } },
{ "type": "Feature", "id": 252, "properties": { "primary_fuel": "Coal", "name": "Datang Sanmenxia power station" }, "geometry": { "type": "Point", "coordinates": [ 111.0274, 34.6847 ] } },
{ "type": "Feature", "id": 253, "properties": { "primary_fuel": "Coal", "name": "Datang Shentou power station" }, "geometry": { "type": "Point", "coordinates": [ 112.5333, 39.3648 ] } },
{ "type": "Feature", "id": 254, "properties": { "primary_fuel": "Coal", "name": "Datang Shuangyashan power station" }, "geometry": { "type": "Point", "coordinates": [ 131.169, 46.6801 ] } },
{ "type": "Feature", "id": 255, "properties": { "primary_fuel": "Coal", "name": "Datang Tuoketuo power station" }, "geometry": { "type": "Point", "coordinates": [ 111.3589, 40.1947 ] } },
{ "type": "Feature", "id": 256, "properties": { "primary_fuel": "Coal", "name": "Datang Weihe power station" }, "geometry": { "type": "Point", "coordinates": [ 108.8997, 34.431 ] } },
{ "type": "Feature", "id": 257, "properties": { "primary_fuel": "Coal", "name": "Datang Wuan power station" }, "geometry": { "type": "Point", "coordinates": [ 114.187, 36.8184 ] } },
{ "type": "Feature", "id": 258, "properties": { "primary_fuel": "Coal", "name": "Datang Wushashan power station" }, "geometry": { "type": "Point", "coordinates": [ 121.6627, 29.505 ] } },
{ "type": "Feature", "id": 259, "properties": { "primary_fuel": "Coal", "name": "Datang Xigu power station" }, "geometry": { "type": "Point", "coordinates": [ 103.6228, 36.1289 ] } },
{ "type": "Feature", "id": 260, "properties": { "primary_fuel": "Coal", "name": "Datang Xinyang power station" }, "geometry": { "type": "Point", "coordinates": [ 114.1406, 32.1099 ] } },
{ "type": "Feature", "id": 261, "properties": { "primary_fuel": "Coal", "name": "Datang Xinyu power station" }, "geometry": { "type": "Point", "coordinates": [ 114.9088, 27.7763 ] } },
{ "type": "Feature", "id": 262, "properties": { "primary_fuel": "Coal", "name": "Datang Xutang power station" }, "geometry": { "type": "Point", "coordinates": [ 117.9318, 34.3486 ] } },
{ "type": "Feature", "id": 263, "properties": { "primary_fuel": "Coal", "name": "Datang Yungang power station" }, "geometry": { "type": "Point", "coordinates": [ 113.2192, 40.061 ] } },
{ "type": "Feature", "id": 264, "properties": { "primary_fuel": "Coal", "name": "Datang Zhuzhou-2 power station" }, "geometry": { "type": "Point", "coordinates": [ 113.4603, 27.2444 ] } },
{ "type": "Feature", "id": 265, "properties": { "primary_fuel": "Coal", "name": "Datong - SDIC Coal" }, "geometry": { "type": "Point", "coordinates": [ 113.1053, 39.9474 ] } },
{ "type": "Feature", "id": 266, "properties": { "primary_fuel": "Coal", "name": "Datong - Tashan Coal" }, "geometry": { "type": "Point", "coordinates": [ 113.0843, 39.9261 ] } },
{ "type": "Feature", "id": 267, "properties": { "primary_fuel": "Coal", "name": "Datong power station" }, "geometry": { "type": "Point", "coordinates": [ 113.2933, 40.0279 ] } },
{ "type": "Feature", "id": 268, "properties": { "primary_fuel": "Coal", "name": "Datun Mine power station" }, "geometry": { "type": "Point", "coordinates": [ 116.9414, 34.8684 ] } },
{ "type": "Feature", "id": 269, "properties": { "primary_fuel": "Coal", "name": "Dengfeng-1 power station" }, "geometry": { "type": "Point", "coordinates": [ 113.0552, 34.3739 ] } },
{ "type": "Feature", "id": 270, "properties": { "primary_fuel": "Coal", "name": "Dengfeng-2 power station" }, "geometry": { "type": "Point", "coordinates": [ 113.1997, 34.3925 ] } },
{ "type": "Feature", "id": 271, "properties": { "primary_fuel": "Coal", "name": "Diandong Yuwang power station" }, "geometry": { "type": "Point", "coordinates": [ 104.6172, 25.1016 ] } },
{ "type": "Feature", "id": 272, "properties": { "primary_fuel": "Coal", "name": "Diandong power station" }, "geometry": { "type": "Point", "coordinates": [ 104.6826, 25.1995 ] } },
{ "type": "Feature", "id": 273, "properties": { "primary_fuel": "Coal", "name": "Dianta Coal" }, "geometry": { "type": "Point", "coordinates": [ 110.4514, 38.9728 ] } },
{ "type": "Feature", "id": 274, "properties": { "primary_fuel": "Coal", "name": "Diaobingshan power station" }, "geometry": { "type": "Point", "coordinates": [ 123.5656, 42.494 ] } },
{ "type": "Feature", "id": 275, "properties": { "primary_fuel": "Coal", "name": "Dingzhou power station" }, "geometry": { "type": "Point", "coordinates": [ 114.8434, 38.5122 ] } },
{ "type": "Feature", "id": 276, "properties": { "primary_fuel": "Coal", "name": "Dongfeng Captive power station" }, "geometry": { "type": "Point", "coordinates": [ 110.7383, 32.6499 ] } },
{ "type": "Feature", "id": 277, "properties": { "primary_fuel": "Coal", "name": "Dongfeng Xiangfan Factory power station" }, "geometry": { "type": "Point", "coordinates": [ 112.1713, 32.1219 ] } },
{ "type": "Feature", "id": 278, "properties": { "primary_fuel": "Coal", "name": "Dongtang Coal" }, "geometry": { "type": "Point", "coordinates": [ 113.729, 23.1395 ] } },
{ "type": "Feature", "id": 279, "properties": { "primary_fuel": "Coal", "name": "Dongtang Plant power station" }, "geometry": { "type": "Point", "coordinates": [ 113.6292, 23.08 ] } },
{ "type": "Feature", "id": 280, "properties": { "primary_fuel": "Coal", "name": "Dongying Coastal power station" }, "geometry": { "type": "Point", "coordinates": [ 118.8581, 37.4288 ] } },
{ "type": "Feature", "id": 281, "properties": { "primary_fuel": "Coal", "name": "Dongying Huatai Chemical power station" }, "geometry": { "type": "Point", "coordinates": [ 118.8752, 37.409 ] } },
{ "type": "Feature", "id": 282, "properties": { "primary_fuel": "Coal", "name": "Dongyuan Tech power station" }, "geometry": { "type": "Point", "coordinates": [ 106.6882, 39.4815 ] } },
{ "type": "Feature", "id": 283, "properties": { "primary_fuel": "Coal", "name": "Douhe power station" }, "geometry": { "type": "Point", "coordinates": [ 118.2729, 39.773 ] } },
{ "type": "Feature", "id": 284, "properties": { "primary_fuel": "Coal", "name": "Duolun Coal Chemical power station" }, "geometry": { "type": "Point", "coordinates": [ 116.577, 42.2123 ] } },
{ "type": "Feature", "id": 285, "properties": { "primary_fuel": "Coal", "name": "Dushanzi Ethene power station" }, "geometry": { "type": "Point", "coordinates": [ 84.8671, 44.3791 ] } },
{ "type": "Feature", "id": 286, "properties": { "primary_fuel": "Coal", "name": "East Hope Metals Wucaiwan power station" }, "geometry": { "type": "Point", "coordinates": [ 89.1138, 44.6885 ] } },
{ "type": "Feature", "id": 287, "properties": { "primary_fuel": "Coal", "name": "Enhong Coal" }, "geometry": { "type": "Point", "coordinates": [ 104.1108, 25.2339 ] } },
{ "type": "Feature", "id": 288, "properties": { "primary_fuel": "Coal", "name": "Enipedia" }, "geometry": { "type": "Point", "coordinates": [ 113.0475, 36.4897 ] } },
{ "type": "Feature", "id": 289, "properties": { "primary_fuel": "Coal", "name": "Erdaojiang power station" }, "geometry": { "type": "Point", "coordinates": [ 126.0148, 41.7797 ] } },
{ "type": "Feature", "id": 290, "properties": { "primary_fuel": "Coal", "name": "Fangchenggang Coal" }, "geometry": { "type": "Point", "coordinates": [ 108.3947, 21.5918 ] } },
{ "type": "Feature", "id": 291, "properties": { "primary_fuel": "Coal", "name": "Fangjiazhuang Coal" }, "geometry": { "type": "Point", "coordinates": [ 106.7872, 37.845 ] } },
{ "type": "Feature", "id": 292, "properties": { "primary_fuel": "Coal", "name": "Fangshan power station" }, "geometry": { "type": "Point", "coordinates": [ 111.1813, 37.6707 ] } },
{ "type": "Feature", "id": 293, "properties": { "primary_fuel": "Coal", "name": "Fengrun power station" }, "geometry": { "type": "Point", "coordinates": [ 118.0861, 39.8061 ] } },
{ "type": "Feature", "id": 294, "properties": { "primary_fuel": "Coal", "name": "Fengying power station" }, "geometry": { "type": "Point", "coordinates": [ 113.3955, 35.3442 ] } },
{ "type": "Feature", "id": 295, "properties": { "primary_fuel": "Coal", "name": "Fengzhen - Huaneng Coal" }, "geometry": { "type": "Point", "coordinates": [ 113.1446, 40.4043 ] } },
{ "type": "Feature", "id": 296, "properties": { "primary_fuel": "Coal", "name": "Fengzhen - Jinlong Coal" }, "geometry": { "type": "Point", "coordinates": [ 113.155, 40.4029 ] } },
{ "type": "Feature", "id": 297, "properties": { "primary_fuel": "Coal", "name": "Fengzhen Xinfeng power station" }, "geometry": { "type": "Point", "coordinates": [ 113.0873, 40.4705 ] } },
{ "type": "Feature", "id": 298, "properties": { "primary_fuel": "Coal", "name": "Fugu Qingshuichuan power station" }, "geometry": { "type": "Point", "coordinates": [ 111.119, 39.2049 ] } },
{ "type": "Feature", "id": 299, "properties": { "primary_fuel": "Coal", "name": "Fujian Hongshan power station" }, "geometry": { "type": "Point", "coordinates": [ 118.7497, 24.7277 ] } },
{ "type": "Feature", "id": 300, "properties": { "primary_fuel": "Coal", "name": "Funing Coal" }, "geometry": { "type": "Point", "coordinates": [ 119.8087, 33.778 ] } },
{ "type": "Feature", "id": 301, "properties": { "primary_fuel": "Coal", "name": "Fushun CPI power station" }, "geometry": { "type": "Point", "coordinates": [ 123.9342, 41.8897 ] } },
{ "type": "Feature", "id": 302, "properties": { "primary_fuel": "Coal", "name": "Fuxi power station" }, "geometry": { "type": "Point", "coordinates": [ 104.6893, 28.666 ] } },
{ "type": "Feature", "id": 303, "properties": { "primary_fuel": "Coal", "name": "Fuxin Jinshan Power Station" }, "geometry": { "type": "Point", "coordinates": [ 121.4302, 41.7848 ] } },
{ "type": "Feature", "id": 304, "properties": { "primary_fuel": "Coal", "name": "Fuxin power station" }, "geometry": { "type": "Point", "coordinates": [ 121.6635, 41.9976 ] } },
{ "type": "Feature", "id": 305, "properties": { "primary_fuel": "Coal", "name": "Fuyang power station" }, "geometry": { "type": "Point", "coordinates": [ 115.8448, 33.0047 ] } },
{ "type": "Feature", "id": 306, "properties": { "primary_fuel": "Coal", "name": "Fuzhou Kemen power station" }, "geometry": { "type": "Point", "coordinates": [ 119.7621, 26.3736 ] } },
{ "type": "Feature", "id": 307, "properties": { "primary_fuel": "Coal", "name": "GEPIC Jinchang power station" }, "geometry": { "type": "Point", "coordinates": [ 102.0968, 38.3784 ] } },
{ "type": "Feature", "id": 308, "properties": { "primary_fuel": "Coal", "name": "GEPIC Zhangye power station" }, "geometry": { "type": "Point", "coordinates": [ 100.4621, 39.0709 ] } },
{ "type": "Feature", "id": 309, "properties": { "primary_fuel": "Coal", "name": "Ganneng Fengcheng power station" }, "geometry": { "type": "Point", "coordinates": [ 115.7097, 28.1997 ] } },
{ "type": "Feature", "id": 310, "properties": { "primary_fuel": "Coal", "name": "Ganquanbao TBEA power station" }, "geometry": { "type": "Point", "coordinates": [ 87.7707, 44.1247 ] } },
{ "type": "Feature", "id": 311, "properties": { "primary_fuel": "Coal", "name": "Gansu Baiyin power station" }, "geometry": { "type": "Point", "coordinates": [ 104.2271, 36.5295 ] } },
{ "type": "Feature", "id": 312, "properties": { "primary_fuel": "Coal", "name": "Gansu Chongxin power station" }, "geometry": { "type": "Point", "coordinates": [ 106.9196, 35.2796 ] } },
{ "type": "Feature", "id": 313, "properties": { "primary_fuel": "Coal", "name": "Gold Huasheng Mill power station" }, "geometry": { "type": "Point", "coordinates": [ 120.8446, 31.3062 ] } },
{ "type": "Feature", "id": 314, "properties": { "primary_fuel": "Coal", "name": "Great Waste Coal power station" }, "geometry": { "type": "Point", "coordinates": [ 112.39, 39.4133 ] } },
{ "type": "Feature", "id": 315, "properties": { "primary_fuel": "Coal", "name": "GreenGen power station" }, "geometry": { "type": "Point", "coordinates": [ 117.7271, 38.925 ] } },
{ "type": "Feature", "id": 316, "properties": { "primary_fuel": "Coal", "name": "Guangan power station" }, "geometry": { "type": "Point", "coordinates": [ 106.8256, 30.5288 ] } },
{ "type": "Feature", "id": 317, "properties": { "primary_fuel": "Coal", "name": "Guangdong Huilai power station" }, "geometry": { "type": "Point", "coordinates": [ 116.5468, 23.0056 ] } },
{ "type": "Feature", "id": 318, "properties": { "primary_fuel": "Coal", "name": "Guangdong Huizhou Pinghai power station" }, "geometry": { "type": "Point", "coordinates": [ 114.7419, 22.6059 ] } },
{ "type": "Feature", "id": 319, "properties": { "primary_fuel": "Coal", "name": "Guangdong Jinwan power station" }, "geometry": { "type": "Point", "coordinates": [ 113.1797, 21.9691 ] } },
{ "type": "Feature", "id": 320, "properties": { "primary_fuel": "Coal", "name": "Guangdong Shajiao power complex" }, "geometry": { "type": "Point", "coordinates": [ 113.6807, 22.7489 ] } },
{ "type": "Feature", "id": 321, "properties": { "primary_fuel": "Coal", "name": "Guangdong Shaoguan power station" }, "geometry": { "type": "Point", "coordinates": [ 113.5831, 24.5852 ] } },
{ "type": "Feature", "id": 322, "properties": { "primary_fuel": "Coal", "name": "Guangxi Luzhai power station" }, "geometry": { "type": "Point", "coordinates": [ 109.6935, 24.456 ] } },
{ "type": "Feature", "id": 323, "properties": { "primary_fuel": "Coal", "name": "Guangzhou Lixin power station" }, "geometry": { "type": "Point", "coordinates": [ 113.565, 23.0942 ] } },
{ "type": "Feature", "id": 324, "properties": { "primary_fuel": "Coal", "name": "Guangzhou Nansha power station" }, "geometry": { "type": "Point", "coordinates": [ 113.5228, 22.8635 ] } },
{ "type": "Feature", "id": 325, "properties": { "primary_fuel": "Coal", "name": "Guangzhou Refinery power station" }, "geometry": { "type": "Point", "coordinates": [ 113.47, 23.1196 ] } },
{ "type": "Feature", "id": 326, "properties": { "primary_fuel": "Coal", "name": "Guangzhou Wanglong Cogen power station" }, "geometry": { "type": "Point", "coordinates": [ 113.5648, 23.0929 ] } },
{ "type": "Feature", "id": 327, "properties": { "primary_fuel": "Coal", "name": "Guangzhou Zhujiang power station" }, "geometry": { "type": "Point", "coordinates": [ 113.5678, 22.8141 ] } },
{ "type": "Feature", "id": 328, "properties": { "primary_fuel": "Coal", "name": "Guangzhou power station" }, "geometry": { "type": "Point", "coordinates": [ 113.2243, 23.142 ] } },
{ "type": "Feature", "id": 329, "properties": { "primary_fuel": "Coal", "name": "Guixi power station" }, "geometry": { "type": "Point", "coordinates": [ 117.2231, 28.2891 ] } },
{ "type": "Feature", "id": 330, "properties": { "primary_fuel": "Coal", "name": "Guizhou Dalong power station" }, "geometry": { "type": "Point", "coordinates": [ 109.0147, 27.2954 ] } },
{ "type": "Feature", "id": 331, "properties": { "primary_fuel": "Coal", "name": "Guizhou Faer power station" }, "geometry": { "type": "Point", "coordinates": [ 104.7706, 26.3251 ] } },
{ "type": "Feature", "id": 332, "properties": { "primary_fuel": "Coal", "name": "Guodian Anshun power station" }, "geometry": { "type": "Point", "coordinates": [ 105.6866, 26.2203 ] } },
{ "type": "Feature", "id": 333, "properties": { "primary_fuel": "Coal", "name": "Guodian Baoji-2 power station" }, "geometry": { "type": "Point", "coordinates": [ 107.2176, 34.498 ] } },
{ "type": "Feature", "id": 334, "properties": { "primary_fuel": "Coal", "name": "Guodian Baoqing power station" }, "geometry": { "type": "Point", "coordinates": [ 111.3966, 27.2021 ] } },
{ "type": "Feature", "id": 335, "properties": { "primary_fuel": "Coal", "name": "Guodian Beilun power station" }, "geometry": { "type": "Point", "coordinates": [ 121.8131, 29.9433 ] } },
{ "type": "Feature", "id": 336, "properties": { "primary_fuel": "Coal", "name": "Guodian Changyuan Jingzhou power station" }, "geometry": { "type": "Point", "coordinates": [ 112.3086, 30.2971 ] } },
{ "type": "Feature", "id": 337, "properties": { "primary_fuel": "Coal", "name": "Guodian Dananhu power station" }, "geometry": { "type": "Point", "coordinates": [ 93.1914, 42.3202 ] } },
{ "type": "Feature", "id": 338, "properties": { "primary_fuel": "Coal", "name": "Guodian Dawukou power station" }, "geometry": { "type": "Point", "coordinates": [ 106.3846, 39.036 ] } },
{ "type": "Feature", "id": 339, "properties": { "primary_fuel": "Coal", "name": "Guodian Dongsheng power station" }, "geometry": { "type": "Point", "coordinates": [ 110.0344, 39.8228 ] } },
{ "type": "Feature", "id": 340, "properties": { "primary_fuel": "Coal", "name": "Guodian Duyun power station" }, "geometry": { "type": "Point", "coordinates": [ 107.5429, 26.6304 ] } },
{ "type": "Feature", "id": 341, "properties": { "primary_fuel": "Coal", "name": "Guodian Feixian power station" }, "geometry": { "type": "Point", "coordinates": [ 117.9057, 35.3197 ] } },
{ "type": "Feature", "id": 342, "properties": { "primary_fuel": "Coal", "name": "Guodian Guangdong Zhaoqing Dawang power station" }, "geometry": { "type": "Point", "coordinates": [ 112.8563, 23.3006 ] } },
{ "type": "Feature", "id": 343, "properties": { "primary_fuel": "Coal", "name": "Guodian Huangjinbu power station" }, "geometry": { "type": "Point", "coordinates": [ 116.8603, 28.4508 ] } },
{ "type": "Feature", "id": 344, "properties": { "primary_fuel": "Coal", "name": "Guodian Jiangnan power station" }, "geometry": { "type": "Point", "coordinates": [ 126.5902, 43.7942 ] } },
{ "type": "Feature", "id": 345, "properties": { "primary_fuel": "Coal", "name": "Guodian Jiangyin power station" }, "geometry": { "type": "Point", "coordinates": [ 119.3394, 25.4393 ] } },
{ "type": "Feature", "id": 346, "properties": { "primary_fuel": "Coal", "name": "Guodian Jilin power station" }, "geometry": { "type": "Point", "coordinates": [ 124.0519, 47.3783 ] } },
{ "type": "Feature", "id": 347, "properties": { "primary_fuel": "Coal", "name": "Guodian Jingmen power station" }, "geometry": { "type": "Point", "coordinates": [ 112.2316, 31.0371 ] } },
{ "type": "Feature", "id": 348, "properties": { "primary_fuel": "Coal", "name": "Guodian Jingyuan power station" }, "geometry": { "type": "Point", "coordinates": [ 104.7625, 36.7288 ] } },
{ "type": "Feature", "id": 349, "properties": { "primary_fuel": "Coal", "name": "Guodian Jiujiang power station" }, "geometry": { "type": "Point", "coordinates": [ 116.0345, 29.7404 ] } },
{ "type": "Feature", "id": 350, "properties": { "primary_fuel": "Coal", "name": "Guodian Jiuquan power station" }, "geometry": { "type": "Point", "coordinates": [ 98.5065, 39.68 ] } },
{ "type": "Feature", "id": 351, "properties": { "primary_fuel": "Coal", "name": "Guodian Kuqa power station" }, "geometry": { "type": "Point", "coordinates": [ 82.8874, 41.7381 ] } },
{ "type": "Feature", "id": 352, "properties": { "primary_fuel": "Coal", "name": "Guodian Langfang power station" }, "geometry": { "type": "Point", "coordinates": [ 116.7695, 39.4793 ] } },
{ "type": "Feature", "id": 353, "properties": { "primary_fuel": "Coal", "name": "Guodian Nanning power station" }, "geometry": { "type": "Point", "coordinates": [ 108.9395, 22.7891 ] } },
{ "type": "Feature", "id": 354, "properties": { "primary_fuel": "Coal", "name": "Guodian Penglai power station" }, "geometry": { "type": "Point", "coordinates": [ 120.5945, 37.7553 ] } },
{ "type": "Feature", "id": 355, "properties": { "primary_fuel": "Coal", "name": "Guodian Pingnan power station" }, "geometry": { "type": "Point", "coordinates": [ 126.6582, 45.5446 ] } },
{ "type": "Feature", "id": 356, "properties": { "primary_fuel": "Coal", "name": "Guodian Shangqiu Minquan power station" }, "geometry": { "type": "Point", "coordinates": [ 115.2925, 34.6189 ] } },
{ "type": "Feature", "id": 357, "properties": { "primary_fuel": "Coal", "name": "Guodian Shenyang power station" }, "geometry": { "type": "Point", "coordinates": [ 123.1886, 41.7251 ] } },
{ "type": "Feature", "id": 358, "properties": { "primary_fuel": "Coal", "name": "Guodian Shizuishan-2 power station" }, "geometry": { "type": "Point", "coordinates": [ 106.788, 39.2848 ] } },
{ "type": "Feature", "id": 359, "properties": { "primary_fuel": "Coal", "name": "Guodian Suqian power station" }, "geometry": { "type": "Point", "coordinates": [ 118.3687, 33.8392 ] } },
{ "type": "Feature", "id": 360, "properties": { "primary_fuel": "Coal", "name": "Guodian Taian power station" }, "geometry": { "type": "Point", "coordinates": [ 117.1369, 36.0764 ] } },
{ "type": "Feature", "id": 361, "properties": { "primary_fuel": "Coal", "name": "Guodian Taizhou power station" }, "geometry": { "type": "Point", "coordinates": [ 119.9145, 32.1872 ] } },
{ "type": "Feature", "id": 362, "properties": { "primary_fuel": "Coal", "name": "Guodian Yongfu power station" }, "geometry": { "type": "Point", "coordinates": [ 110.069, 25.1013 ] } },
{ "type": "Feature", "id": 363, "properties": { "primary_fuel": "Coal", "name": "Guodian Yuyuan power station" }, "geometry": { "type": "Point", "coordinates": [ 112.5792, 35.0579 ] } },
{ "type": "Feature", "id": 364, "properties": { "primary_fuel": "Coal", "name": "Guodian Yuzhong power station" }, "geometry": { "type": "Point", "coordinates": [ 103.8761, 36.0323 ] } },
{ "type": "Feature", "id": 365, "properties": { "primary_fuel": "Coal", "name": "Guodian Zhijin power station" }, "geometry": { "type": "Point", "coordinates": [ 105.8193, 26.8326 ] } },
{ "type": "Feature", "id": 366, "properties": { "primary_fuel": "Coal", "name": "Guodian Zhuanghe power station" }, "geometry": { "type": "Point", "coordinates": [ 123.2059, 39.6766 ] } },
{ "type": "Feature", "id": 367, "properties": { "primary_fuel": "Coal", "name": "Guohua Hulunbeier power station" }, "geometry": { "type": "Point", "coordinates": [ 119.7207, 49.3476 ] } },
{ "type": "Feature", "id": 368, "properties": { "primary_fuel": "Coal", "name": "Guohua Shouguang power station" }, "geometry": { "type": "Point", "coordinates": [ 118.9069, 37.2697 ] } },
{ "type": "Feature", "id": 369, "properties": { "primary_fuel": "Coal", "name": "Guohua Taicang power station" }, "geometry": { "type": "Point", "coordinates": [ 121.2556, 31.5877 ] } },
{ "type": "Feature", "id": 370, "properties": { "primary_fuel": "Coal", "name": "Guohua Taishan power station" }, "geometry": { "type": "Point", "coordinates": [ 112.9228, 21.8664 ] } },
{ "type": "Feature", "id": 371, "properties": { "primary_fuel": "Coal", "name": "Guohua Xuzhou power station" }, "geometry": { "type": "Point", "coordinates": [ 117.256, 34.3858 ] } },
{ "type": "Feature", "id": 372, "properties": { "primary_fuel": "Coal", "name": "Guohua Zhoushan power station" }, "geometry": { "type": "Point", "coordinates": [ 122.185, 30.1032 ] } },
{ "type": "Feature", "id": 373, "properties": { "primary_fuel": "Coal", "name": "Haifengherui power station" }, "geometry": { "type": "Point", "coordinates": [ 105.1399, 28.716 ] } },
{ "type": "Feature", "id": 374, "properties": { "primary_fuel": "Coal", "name": "Hailar Coal" }, "geometry": { "type": "Point", "coordinates": [ 119.7403, 49.2374 ] } },
{ "type": "Feature", "id": 375, "properties": { "primary_fuel": "Coal", "name": "Hainan Southwest power station" }, "geometry": { "type": "Point", "coordinates": [ 108.6824, 18.5383 ] } },
{ "type": "Feature", "id": 376, "properties": { "primary_fuel": "Coal", "name": "Hami 1-4 Coal" }, "geometry": { "type": "Point", "coordinates": [ 93.4435, 42.8936 ] } },
{ "type": "Feature", "id": 377, "properties": { "primary_fuel": "Coal", "name": "Hancheng power station" }, "geometry": { "type": "Point", "coordinates": [ 110.5557, 35.6002 ] } },
{ "type": "Feature", "id": 378, "properties": { "primary_fuel": "Coal", "name": "Hanchuan power station" }, "geometry": { "type": "Point", "coordinates": [ 113.9173, 30.6565 ] } },
{ "type": "Feature", "id": 379, "properties": { "primary_fuel": "Coal", "name": "Handan Eastern Outskirt Cogen Power Station" }, "geometry": { "type": "Point", "coordinates": [ 114.6509, 36.5702 ] } },
{ "type": "Feature", "id": 380, "properties": { "primary_fuel": "Coal", "name": "Handan power station" }, "geometry": { "type": "Point", "coordinates": [ 114.4997, 36.6421 ] } },
{ "type": "Feature", "id": 381, "properties": { "primary_fuel": "Coal", "name": "Hanfeng power station" }, "geometry": { "type": "Point", "coordinates": [ 114.1523, 36.4719 ] } },
{ "type": "Feature", "id": 382, "properties": { "primary_fuel": "Coal", "name": "Hang Hau Longyan power station" }, "geometry": { "type": "Point", "coordinates": [ 117.155, 25.281 ] } },
{ "type": "Feature", "id": 383, "properties": { "primary_fuel": "Coal", "name": "Hebei Longshan power station" }, "geometry": { "type": "Point", "coordinates": [ 113.6916, 36.5976 ] } },
{ "type": "Feature", "id": 384, "properties": { "primary_fuel": "Coal", "name": "Hebi Fenghe power station" }, "geometry": { "type": "Point", "coordinates": [ 114.1798, 35.8512 ] } },
{ "type": "Feature", "id": 385, "properties": { "primary_fuel": "Coal", "name": "Hefei power station" }, "geometry": { "type": "Point", "coordinates": [ 117.2521, 31.9137 ] } },
{ "type": "Feature", "id": 386, "properties": { "primary_fuel": "Coal", "name": "Hefei-2 power station" }, "geometry": { "type": "Point", "coordinates": [ 117.5072, 31.8043 ] } },
{ "type": "Feature", "id": 387, "properties": { "primary_fuel": "Coal", "name": "Hefeng power station" }, "geometry": { "type": "Point", "coordinates": [ 86.5936, 46.6088 ] } },
{ "type": "Feature", "id": 388, "properties": { "primary_fuel": "Coal", "name": "Hegang - Longmay Coal" }, "geometry": { "type": "Point", "coordinates": [ 130.2256, 47.2354 ] } },
{ "type": "Feature", "id": 389, "properties": { "primary_fuel": "Coal", "name": "Heilongjiang Hegang Mining power station" }, "geometry": { "type": "Point", "coordinates": [ 130.255, 47.2992 ] } },
{ "type": "Feature", "id": 390, "properties": { "primary_fuel": "Coal", "name": "Heilongjiang Qiqihar power station" }, "geometry": { "type": "Point", "coordinates": [ 124.051, 47.379 ] } },
{ "type": "Feature", "id": 391, "properties": { "primary_fuel": "Coal", "name": "Hejin power station" }, "geometry": { "type": "Point", "coordinates": [ 110.6558, 35.6131 ] } },
{ "type": "Feature", "id": 392, "properties": { "primary_fuel": "Coal", "name": "Henan Aluminum power station" }, "geometry": { "type": "Point", "coordinates": [ 113.259, 34.8183 ] } },
{ "type": "Feature", "id": 393, "properties": { "primary_fuel": "Coal", "name": "Henan Hebi power station" }, "geometry": { "type": "Point", "coordinates": [ 114.2404, 35.7855 ] } },
{ "type": "Feature", "id": 394, "properties": { "primary_fuel": "Coal", "name": "Henan Heqi power station" }, "geometry": { "type": "Point", "coordinates": [ 114.1855, 35.7214 ] } },
{ "type": "Feature", "id": 395, "properties": { "primary_fuel": "Coal", "name": "Henan Mengdian power station" }, "geometry": { "type": "Point", "coordinates": [ 113.8325, 35.4312 ] } },
{ "type": "Feature", "id": 396, "properties": { "primary_fuel": "Coal", "name": "Henan Nengxin Cogen power station" }, "geometry": { "type": "Point", "coordinates": [ 113.8667, 34.0038 ] } },
{ "type": "Feature", "id": 397, "properties": { "primary_fuel": "Coal", "name": "Henan Xinan power station" }, "geometry": { "type": "Point", "coordinates": [ 112.0631, 34.7406 ] } },
{ "type": "Feature", "id": 398, "properties": { "primary_fuel": "Coal", "name": "Henan Xinmi power station" }, "geometry": { "type": "Point", "coordinates": [ 113.5986, 34.5 ] } },
{ "type": "Feature", "id": 399, "properties": { "primary_fuel": "Coal", "name": "Henan Yongcheng power station" }, "geometry": { "type": "Point", "coordinates": [ 116.416, 33.9541 ] } },
{ "type": "Feature", "id": 400, "properties": { "primary_fuel": "Coal", "name": "Henan Yulian power station" }, "geometry": { "type": "Point", "coordinates": [ 113.079, 34.7967 ] } },
{ "type": "Feature", "id": 401, "properties": { "primary_fuel": "Coal", "name": "Henan Zhongmai Yongan power station" }, "geometry": { "type": "Point", "coordinates": [ 112.9314, 34.6939 ] } },
{ "type": "Feature", "id": 402, "properties": { "primary_fuel": "Coal", "name": "Hengfeng-2 power station" }, "geometry": { "type": "Point", "coordinates": [ 115.6012, 37.7527 ] } },
{ "type": "Feature", "id": 403, "properties": { "primary_fuel": "Coal", "name": "Henglian Wucaiwan power station" }, "geometry": { "type": "Point", "coordinates": [ 89.1977, 44.7896 ] } },
{ "type": "Feature", "id": 404, "properties": { "primary_fuel": "Coal", "name": "Hengshan Jiangsu power station" }, "geometry": { "type": "Point", "coordinates": [ 120.1234, 31.7652 ] } },
{ "type": "Feature", "id": 405, "properties": { "primary_fuel": "Coal", "name": "Hengshui Hengxing power station" }, "geometry": { "type": "Point", "coordinates": [ 115.601, 37.7527 ] } },
{ "type": "Feature", "id": 406, "properties": { "primary_fuel": "Coal", "name": "Hengtong Chemical Power Station" }, "geometry": { "type": "Point", "coordinates": [ 118.3242, 34.6268 ] } },
{ "type": "Feature", "id": 407, "properties": { "primary_fuel": "Coal", "name": "Hengyun A Coal" }, "geometry": { "type": "Point", "coordinates": [ 113.4984, 23.0655 ] } },
{ "type": "Feature", "id": 408, "properties": { "primary_fuel": "Coal", "name": "Hengyun B Coal" }, "geometry": { "type": "Point", "coordinates": [ 113.5006, 23.0638 ] } },
{ "type": "Feature", "id": 409, "properties": { "primary_fuel": "Coal", "name": "Hepo Coal" }, "geometry": { "type": "Point", "coordinates": [ 113.6163, 37.8458 ] } },
{ "type": "Feature", "id": 410, "properties": { "primary_fuel": "Coal", "name": "Hesheng Shanshan power station" }, "geometry": { "type": "Point", "coordinates": [ 86.0984, 44.456 ] } },
{ "type": "Feature", "id": 411, "properties": { "primary_fuel": "Coal", "name": "Heshuyuan power station" }, "geometry": { "type": "Point", "coordinates": [ 116.2608, 24.3924 ] } },
{ "type": "Feature", "id": 412, "properties": { "primary_fuel": "Coal", "name": "Heyuan power station" }, "geometry": { "type": "Point", "coordinates": [ 114.64, 23.567 ] } },
{ "type": "Feature", "id": 413, "properties": { "primary_fuel": "Coal", "name": "Heze Huarun power station" }, "geometry": { "type": "Point", "coordinates": [ 115.686, 35.2526 ] } },
{ "type": "Feature", "id": 414, "properties": { "primary_fuel": "Coal", "name": "Heze power station" }, "geometry": { "type": "Point", "coordinates": [ 115.5335, 35.2407 ] } },
{ "type": "Feature", "id": 415, "properties": { "primary_fuel": "Coal", "name": "Hezhou power station" }, "geometry": { "type": "Point", "coordinates": [ 111.3464, 24.7361 ] } },
{ "type": "Feature", "id": 416, "properties": { "primary_fuel": "Coal", "name": "Hohhot Jinqiao power station" }, "geometry": { "type": "Point", "coordinates": [ 111.7399, 40.7085 ] } },
{ "type": "Feature", "id": 417, "properties": { "primary_fuel": "Coal", "name": "Hohhot Jinshan power station" }, "geometry": { "type": "Point", "coordinates": [ 111.4576, 40.7069 ] } },
{ "type": "Feature", "id": 418, "properties": { "primary_fuel": "Coal", "name": "Hongjun Aluminum power station" }, "geometry": { "type": "Point", "coordinates": [ 119.6545, 45.5 ] } },
{ "type": "Feature", "id": 419, "properties": { "primary_fuel": "Coal", "name": "Hongyanchi-1 power station" }, "geometry": { "type": "Point", "coordinates": [ 87.6292, 43.728 ] } },
{ "type": "Feature", "id": 420, "properties": { "primary_fuel": "Coal", "name": "Hongyanchi-2 power station" }, "geometry": { "type": "Point", "coordinates": [ 87.6576, 43.7436 ] } },
{ "type": "Feature", "id": 421, "properties": { "primary_fuel": "Coal", "name": "Hongyang Lianyungang power station" }, "geometry": { "type": "Point", "coordinates": [ 119.5797, 34.5515 ] } },
{ "type": "Feature", "id": 422, "properties": { "primary_fuel": "Coal", "name": "Hongyang Nengyuan power station" }, "geometry": { "type": "Point", "coordinates": [ 123.2217, 41.357 ] } },
{ "type": "Feature", "id": 423, "properties": { "primary_fuel": "Coal", "name": "Hongyuan Waste Coal Cogen power station" }, "geometry": { "type": "Point", "coordinates": [ 126.9663, 44.4196 ] } },
{ "type": "Feature", "id": 424, "properties": { "primary_fuel": "Coal", "name": "Houshi power station" }, "geometry": { "type": "Point", "coordinates": [ 118.1261, 24.3031 ] } },
{ "type": "Feature", "id": 425, "properties": { "primary_fuel": "Coal", "name": "Huadian Baotou Tuyou power station" }, "geometry": { "type": "Point", "coordinates": [ 110.6228, 40.5836 ] } },
{ "type": "Feature", "id": 426, "properties": { "primary_fuel": "Coal", "name": "Huadian Changde power station" }, "geometry": { "type": "Point", "coordinates": [ 111.7, 29.031 ] } },
{ "type": "Feature", "id": 427, "properties": { "primary_fuel": "Coal", "name": "Huadian Changsha power station" }, "geometry": { "type": "Point", "coordinates": [ 112.7985, 28.4877 ] } },
{ "type": "Feature", "id": 428, "properties": { "primary_fuel": "Coal", "name": "Huadian Fengjie power station" }, "geometry": { "type": "Point", "coordinates": [ 109.4473, 31.1188 ] } },
{ "type": "Feature", "id": 429, "properties": { "primary_fuel": "Coal", "name": "Huadian Fulaerji-2 power station" }, "geometry": { "type": "Point", "coordinates": [ 123.5848, 47.1656 ] } },
{ "type": "Feature", "id": 430, "properties": { "primary_fuel": "Coal", "name": "Huadian Gongxian power station" }, "geometry": { "type": "Point", "coordinates": [ 104.6697, 28.2713 ] } },
{ "type": "Feature", "id": 431, "properties": { "primary_fuel": "Coal", "name": "Huadian Guigang power station" }, "geometry": { "type": "Point", "coordinates": [ 109.7656, 23.1128 ] } },
{ "type": "Feature", "id": 432, "properties": { "primary_fuel": "Coal", "name": "Huadian Hami power station" }, "geometry": { "type": "Point", "coordinates": [ 93.4415, 42.8941 ] } },
{ "type": "Feature", "id": 433, "properties": { "primary_fuel": "Coal", "name": "Huadian Harbin-1 power station" }, "geometry": { "type": "Point", "coordinates": [ 126.6955, 45.7099 ] } },
{ "type": "Feature", "id": 434, "properties": { "primary_fuel": "Coal", "name": "Huadian Harbin-3 power station" }, "geometry": { "type": "Point", "coordinates": [ 126.6637, 45.9656 ] } },
{ "type": "Feature", "id": 435, "properties": { "primary_fuel": "Coal", "name": "Huadian Jiangling power station" }, "geometry": { "type": "Point", "coordinates": [ 112.3106, 30.0912 ] } },
{ "type": "Feature", "id": 436, "properties": { "primary_fuel": "Coal", "name": "Huadian Jurong power station" }, "geometry": { "type": "Point", "coordinates": [ 119.2494, 32.1949 ] } },
{ "type": "Feature", "id": 437, "properties": { "primary_fuel": "Coal", "name": "Huadian Kashi power station" }, "geometry": { "type": "Point", "coordinates": [ 76.0498, 39.4812 ] } },
{ "type": "Feature", "id": 438, "properties": { "primary_fuel": "Coal", "name": "Huadian Laizhou power station" }, "geometry": { "type": "Point", "coordinates": [ 120.0177, 37.4323 ] } },
{ "type": "Feature", "id": 439, "properties": { "primary_fuel": "Coal", "name": "Huadian Longkou power station" }, "geometry": { "type": "Point", "coordinates": [ 120.3132, 37.6809 ] } },
{ "type": "Feature", "id": 440, "properties": { "primary_fuel": "Coal", "name": "Huadian Luan power station" }, "geometry": { "type": "Point", "coordinates": [ 116.4914, 31.6561 ] } },
{ "type": "Feature", "id": 441, "properties": { "primary_fuel": "Coal", "name": "Huadian Luhua power station" }, "geometry": { "type": "Point", "coordinates": [ 114.3177, 38.0516 ] } },
{ "type": "Feature", "id": 442, "properties": { "primary_fuel": "Coal", "name": "Huadian Luohe power station" }, "geometry": { "type": "Point", "coordinates": [ 114.0979, 33.5295 ] } },
{ "type": "Feature", "id": 443, "properties": { "primary_fuel": "Coal", "name": "Huadian Ningxia Lingwu power station" }, "geometry": { "type": "Point", "coordinates": [ 106.3463, 38.1483 ] } },
{ "type": "Feature", "id": 444, "properties": { "primary_fuel": "Coal", "name": "Huadian Shiliquan power station" }, "geometry": { "type": "Point", "coordinates": [ 117.5731, 34.8144 ] } },
{ "type": "Feature", "id": 445, "properties": { "primary_fuel": "Coal", "name": "Huadian Shuozhou power station" }, "geometry": { "type": "Point", "coordinates": [ 112.483, 39.3575 ] } },
{ "type": "Feature", "id": 446, "properties": { "primary_fuel": "Coal", "name": "Huadian Suzhou power station" }, "geometry": { "type": "Point", "coordinates": [ 116.9821, 33.8059 ] } },
{ "type": "Feature", "id": 447, "properties": { "primary_fuel": "Coal", "name": "Huadian Turpan power station" }, "geometry": { "type": "Point", "coordinates": [ 88.6173, 42.7312 ] } },
{ "type": "Feature", "id": 448, "properties": { "primary_fuel": "Coal", "name": "Huadian Urumqi power station" }, "geometry": { "type": "Point", "coordinates": [ 87.6975, 43.9007 ] } },
{ "type": "Feature", "id": 449, "properties": { "primary_fuel": "Coal", "name": "Huadian Wangting power station" }, "geometry": { "type": "Point", "coordinates": [ 120.4364, 31.4444 ] } },
{ "type": "Feature", "id": 450, "properties": { "primary_fuel": "Coal", "name": "Huadian Weifang power station" }, "geometry": { "type": "Point", "coordinates": [ 119.2632, 36.6656 ] } },
{ "type": "Feature", "id": 451, "properties": { "primary_fuel": "Coal", "name": "Huadian Wuda power station" }, "geometry": { "type": "Point", "coordinates": [ 106.7344, 39.4794 ] } },
{ "type": "Feature", "id": 452, "properties": { "primary_fuel": "Coal", "name": "Huadian Wuhu power station" }, "geometry": { "type": "Point", "coordinates": [ 118.15, 31.2376 ] } },
{ "type": "Feature", "id": 453, "properties": { "primary_fuel": "Coal", "name": "Huadian Xinzhou Guangyu power station" }, "geometry": { "type": "Point", "coordinates": [ 112.7516, 38.4595 ] } },
{ "type": "Feature", "id": 454, "properties": { "primary_fuel": "Coal", "name": "Huadian Xisaishan power station" }, "geometry": { "type": "Point", "coordinates": [ 115.1803, 30.2031 ] } },
{ "type": "Feature", "id": 455, "properties": { "primary_fuel": "Coal", "name": "Huadian Yangling Cogen power station" }, "geometry": { "type": "Point", "coordinates": [ 108.1188, 34.2592 ] } },
{ "type": "Feature", "id": 456, "properties": { "primary_fuel": "Coal", "name": "Huadian Yaochi Power station Unit 2" }, "geometry": { "type": "Point", "coordinates": [ 108.0755, 35.0623 ] } },
{ "type": "Feature", "id": 457, "properties": { "primary_fuel": "Coal", "name": "Huadian Zhenxiong power station" }, "geometry": { "type": "Point", "coordinates": [ 104.9485, 27.4929 ] } },
{ "type": "Feature", "id": 458, "properties": { "primary_fuel": "Coal", "name": "Huadian Zhuozi power station" }, "geometry": { "type": "Point", "coordinates": [ 112.6397, 40.9221 ] } },
{ "type": "Feature", "id": 459, "properties": { "primary_fuel": "Coal", "name": "Huadian Zibo power station" }, "geometry": { "type": "Point", "coordinates": [ 118.0532, 36.7602 ] } },
{ "type": "Feature", "id": 460, "properties": { "primary_fuel": "Coal", "name": "Huai'an (Hebei) Coal" }, "geometry": { "type": "Point", "coordinates": [ 114.405, 40.6458 ] } },
{ "type": "Feature", "id": 461, "properties": { "primary_fuel": "Coal", "name": "Huai'an - Guoxin Coal" }, "geometry": { "type": "Point", "coordinates": [ 119.0126, 33.5866 ] } },
{ "type": "Feature", "id": 462, "properties": { "primary_fuel": "Coal", "name": "Huaibei Guoan power station" }, "geometry": { "type": "Point", "coordinates": [ 116.9357, 33.8445 ] } },
{ "type": "Feature", "id": 463, "properties": { "primary_fuel": "Coal", "name": "Huaibei Hushan power station" }, "geometry": { "type": "Point", "coordinates": [ 116.8598, 33.8678 ] } },
{ "type": "Feature", "id": 464, "properties": { "primary_fuel": "Coal", "name": "Huaibei Linhuan power station" }, "geometry": { "type": "Point", "coordinates": [ 116.5866, 33.6127 ] } },
{ "type": "Feature", "id": 465, "properties": { "primary_fuel": "Coal", "name": "Huaibei Pingshan power station" }, "geometry": { "type": "Point", "coordinates": [ 116.8311, 33.8339 ] } },
{ "type": "Feature", "id": 466, "properties": { "primary_fuel": "Coal", "name": "Huainan Fengtai power station" }, "geometry": { "type": "Point", "coordinates": [ 116.6492, 32.7579 ] } },
{ "type": "Feature", "id": 467, "properties": { "primary_fuel": "Coal", "name": "Huainan Guqiao power station" }, "geometry": { "type": "Point", "coordinates": [ 116.569, 32.8142 ] } },
{ "type": "Feature", "id": 468, "properties": { "primary_fuel": "Coal", "name": "Huainan Luohe power station" }, "geometry": { "type": "Point", "coordinates": [ 117.0753, 32.6837 ] } },
{ "type": "Feature", "id": 469, "properties": { "primary_fuel": "Coal", "name": "Huainan Tianji power station" }, "geometry": { "type": "Point", "coordinates": [ 116.8134, 32.7456 ] } },
{ "type": "Feature", "id": 470, "properties": { "primary_fuel": "Coal", "name": "Huainan Xinzhuangzi power station" }, "geometry": { "type": "Point", "coordinates": [ 116.8472, 32.6371 ] } },
{ "type": "Feature", "id": 471, "properties": { "primary_fuel": "Coal", "name": "Huaneng Anyuan power station" }, "geometry": { "type": "Point", "coordinates": [ 114.0058, 27.642 ] } },
{ "type": "Feature", "id": 472, "properties": { "primary_fuel": "Coal", "name": "Huaneng Baishan power station" }, "geometry": { "type": "Point", "coordinates": [ 126.5795, 42.0319 ] } },
{ "type": "Feature", "id": 473, "properties": { "primary_fuel": "Coal", "name": "Huaneng Baotou-1 power station" }, "geometry": { "type": "Point", "coordinates": [ 109.6583, 40.6567 ] } },
{ "type": "Feature", "id": 474, "properties": { "primary_fuel": "Coal", "name": "Huaneng Baotou-2 power station" }, "geometry": { "type": "Point", "coordinates": [ 109.8913, 40.6778 ] } },
{ "type": "Feature", "id": 475, "properties": { "primary_fuel": "Coal", "name": "Huaneng Baotou-3 power station" }, "geometry": { "type": "Point", "coordinates": [ 110.0028, 40.6246 ] } },
{ "type": "Feature", "id": 476, "properties": { "primary_fuel": "Coal", "name": "Huaneng Changchun power station" }, "geometry": { "type": "Point", "coordinates": [ 125.2201, 44.04 ] } },
{ "type": "Feature", "id": 477, "properties": { "primary_fuel": "Coal", "name": "Huaneng Changxing power station" }, "geometry": { "type": "Point", "coordinates": [ 119.9625, 30.9144 ] } },
{ "type": "Feature", "id": 478, "properties": { "primary_fuel": "Coal", "name": "Huaneng Chaohu power station" }, "geometry": { "type": "Point", "coordinates": [ 117.8225, 31.6516 ] } },
{ "type": "Feature", "id": 479, "properties": { "primary_fuel": "Coal", "name": "Huaneng Dalian power station" }, "geometry": { "type": "Point", "coordinates": [ 121.7244, 39.0148 ] } },
{ "type": "Feature", "id": 480, "properties": { "primary_fuel": "Coal", "name": "Huaneng Dandong power station" }, "geometry": { "type": "Point", "coordinates": [ 124.1457, 39.8385 ] } },
{ "type": "Feature", "id": 481, "properties": { "primary_fuel": "Coal", "name": "Huaneng Daqing power station" }, "geometry": { "type": "Point", "coordinates": [ 124.847, 46.7046 ] } },
{ "type": "Feature", "id": 482, "properties": { "primary_fuel": "Coal", "name": "Huaneng Dezhou power station" }, "geometry": { "type": "Point", "coordinates": [ 116.2416, 37.4493 ] } },
{ "type": "Feature", "id": 483, "properties": { "primary_fuel": "Coal", "name": "Huaneng East Hailar power station" }, "geometry": { "type": "Point", "coordinates": [ 119.8314, 49.2631 ] } },
{ "type": "Feature", "id": 484, "properties": { "primary_fuel": "Coal", "name": "Huaneng Fuzhou power station" }, "geometry": { "type": "Point", "coordinates": [ 119.4816, 25.9909 ] } },
{ "type": "Feature", "id": 485, "properties": { "primary_fuel": "Coal", "name": "Huaneng Haikou power station" }, "geometry": { "type": "Point", "coordinates": [ 110.0317, 19.9595 ] } },
{ "type": "Feature", "id": 486, "properties": { "primary_fuel": "Coal", "name": "Huaneng Haimen power station" }, "geometry": { "type": "Point", "coordinates": [ 116.6553, 23.1899 ] } },
{ "type": "Feature", "id": 487, "properties": { "primary_fuel": "Coal", "name": "Huaneng Hainan East power station" }, "geometry": { "type": "Point", "coordinates": [ 108.6364, 19.0494 ] } },
{ "type": "Feature", "id": 488, "properties": { "primary_fuel": "Coal", "name": "Huaneng Hegang power station" }, "geometry": { "type": "Point", "coordinates": [ 130.299, 47.0955 ] } },
{ "type": "Feature", "id": 489, "properties": { "primary_fuel": "Coal", "name": "Huaneng Hohhot power station" }, "geometry": { "type": "Point", "coordinates": [ 111.5977, 40.7934 ] } },
{ "type": "Feature", "id": 490, "properties": { "primary_fuel": "Coal", "name": "Huaneng Huaiyin power station" }, "geometry": { "type": "Point", "coordinates": [ 118.9628, 33.5959 ] } },
{ "type": "Feature", "id": 491, "properties": { "primary_fuel": "Coal", "name": "Huaneng Jiaxiang power station" }, "geometry": { "type": "Point", "coordinates": [ 116.4432, 35.3845 ] } },
{ "type": "Feature", "id": 492, "properties": { "primary_fuel": "Coal", "name": "Huaneng Jinggangshan power station" }, "geometry": { "type": "Point", "coordinates": [ 115.0203, 27.0467 ] } },
{ "type": "Feature", "id": 493, "properties": { "primary_fuel": "Coal", "name": "Huaneng Jingmen power station" }, "geometry": { "type": "Point", "coordinates": [ 112.2487, 31.0582 ] } },
{ "type": "Feature", "id": 494, "properties": { "primary_fuel": "Coal", "name": "Huaneng Jinling power station" }, "geometry": { "type": "Point", "coordinates": [ 119.0195, 32.1716 ] } },
{ "type": "Feature", "id": 495, "properties": { "primary_fuel": "Coal", "name": "Huaneng Jiutai power station" }, "geometry": { "type": "Point", "coordinates": [ 125.928, 44.1071 ] } },
{ "type": "Feature", "id": 496, "properties": { "primary_fuel": "Coal", "name": "Huaneng Laiwu power station" }, "geometry": { "type": "Point", "coordinates": [ 117.685, 36.1339 ] } },
{ "type": "Feature", "id": 497, "properties": { "primary_fuel": "Coal", "name": "Huaneng Linhe power station" }, "geometry": { "type": "Point", "coordinates": [ 107.4909, 40.7826 ] } },
{ "type": "Feature", "id": 498, "properties": { "primary_fuel": "Coal", "name": "Huaneng Luntai power station" }, "geometry": { "type": "Point", "coordinates": [ 84.0036, 41.8215 ] } },
{ "type": "Feature", "id": 499, "properties": { "primary_fuel": "Coal", "name": "Huaneng Luohuang power station" }, "geometry": { "type": "Point", "coordinates": [ 106.4339, 29.3467 ] } },
{ "type": "Feature", "id": 500, "properties": { "primary_fuel": "Coal", "name": "Huaneng Luoyang power station" }, "geometry": { "type": "Point", "coordinates": [ 112.4002, 34.5825 ] } },
{ "type": "Feature", "id": 501, "properties": { "primary_fuel": "Coal", "name": "Huaneng Luoyuan power station" }, "geometry": { "type": "Point", "coordinates": [ 119.7643, 26.4114 ] } },
{ "type": "Feature", "id": 502, "properties": { "primary_fuel": "Coal", "name": "Huaneng Manzhouli Dalaihu power station" }, "geometry": { "type": "Point", "coordinates": [ 117.6481, 49.3957 ] } },
{ "type": "Feature", "id": 503, "properties": { "primary_fuel": "Coal", "name": "Huaneng Manzhouli Guangming power station" }, "geometry": { "type": "Point", "coordinates": [ 117.409, 49.5922 ] } },
{ "type": "Feature", "id": 504, "properties": { "primary_fuel": "Coal", "name": "Huaneng Mianchi power station" }, "geometry": { "type": "Point", "coordinates": [ 111.808, 34.76 ] } },
{ "type": "Feature", "id": 505, "properties": { "primary_fuel": "Coal", "name": "Huaneng Nanjing Chemical Industrial Park power station" }, "geometry": { "type": "Point", "coordinates": [ 118.8794, 32.202 ] } },
{ "type": "Feature", "id": 506, "properties": { "primary_fuel": "Coal", "name": "Huaneng Nanjing power station" }, "geometry": { "type": "Point", "coordinates": [ 118.7532, 32.2069 ] } },
{ "type": "Feature", "id": 507, "properties": { "primary_fuel": "Coal", "name": "Huaneng Pingliang power station" }, "geometry": { "type": "Point", "coordinates": [ 106.7871, 35.5014 ] } },
{ "type": "Feature", "id": 508, "properties": { "primary_fuel": "Coal", "name": "Huaneng Qinbei power station" }, "geometry": { "type": "Point", "coordinates": [ 112.7162, 35.1679 ] } },
{ "type": "Feature", "id": 509, "properties": { "primary_fuel": "Coal", "name": "Huaneng Qinling power station" }, "geometry": { "type": "Point", "coordinates": [ 109.9381, 34.5333 ] } },
{ "type": "Feature", "id": 510, "properties": { "primary_fuel": "Coal", "name": "Huaneng Qufu power station" }, "geometry": { "type": "Point", "coordinates": [ 116.9338, 35.6078 ] } },
{ "type": "Feature", "id": 511, "properties": { "primary_fuel": "Coal", "name": "Huaneng Ruijin power station" }, "geometry": { "type": "Point", "coordinates": [ 115.1019, 25.9241 ] } },
{ "type": "Feature", "id": 512, "properties": { "primary_fuel": "Coal", "name": "Huaneng Shangan power station" }, "geometry": { "type": "Point", "coordinates": [ 114.1966, 38.057 ] } },
{ "type": "Feature", "id": 513, "properties": { "primary_fuel": "Coal", "name": "Huaneng Shangdu power station" }, "geometry": { "type": "Point", "coordinates": [ 116.0293, 42.2237 ] } },
{ "type": "Feature", "id": 514, "properties": { "primary_fuel": "Coal", "name": "Huaneng Shantou power station" }, "geometry": { "type": "Point", "coordinates": [ 116.7364, 23.3252 ] } },
{ "type": "Feature", "id": 515, "properties": { "primary_fuel": "Coal", "name": "Huaneng Taicang power station" }, "geometry": { "type": "Point", "coordinates": [ 121.1799, 31.6566 ] } },
{ "type": "Feature", "id": 516, "properties": { "primary_fuel": "Coal", "name": "Huaneng Tongchuan power station" }, "geometry": { "type": "Point", "coordinates": [ 108.8891, 34.8494 ] } },
{ "type": "Feature", "id": 517, "properties": { "primary_fuel": "Coal", "name": "Huaneng Wuhai Cogen power station" }, "geometry": { "type": "Point", "coordinates": [ 106.8297, 39.707 ] } },
{ "type": "Feature", "id": 518, "properties": { "primary_fuel": "Coal", "name": "Huaneng Wuhai Haibowan power station" }, "geometry": { "type": "Point", "coordinates": [ 106.865, 39.3174 ] } },
{ "type": "Feature", "id": 519, "properties": { "primary_fuel": "Coal", "name": "Huaneng Wulashan power station" }, "geometry": { "type": "Point", "coordinates": [ 108.7674, 40.6512 ] } },
{ "type": "Feature", "id": 520, "properties": { "primary_fuel": "Coal", "name": "Huaneng Xinhua Daqing power station" }, "geometry": { "type": "Point", "coordinates": [ 124.6006, 46.1346 ] } },
{ "type": "Feature", "id": 521, "properties": { "primary_fuel": "Coal", "name": "Huaneng Xining power station" }, "geometry": { "type": "Point", "coordinates": [ 101.6288, 36.6292 ] } },
{ "type": "Feature", "id": 522, "properties": { "primary_fuel": "Coal", "name": "Huaneng Yakeshi Huiliuhe power station" }, "geometry": { "type": "Point", "coordinates": [ 120.8357, 49.2836 ] } },
{ "type": "Feature", "id": 523, "properties": { "primary_fuel": "Coal", "name": "Huaneng Yangliuqing power station" }, "geometry": { "type": "Point", "coordinates": [ 117.038, 39.1512 ] } },
{ "type": "Feature", "id": 524, "properties": { "primary_fuel": "Coal", "name": "Huaneng Yangluo power station" }, "geometry": { "type": "Point", "coordinates": [ 114.5437, 30.6931 ] } },
{ "type": "Feature", "id": 525, "properties": { "primary_fuel": "Coal", "name": "Huaneng Yantai power station" }, "geometry": { "type": "Point", "coordinates": [ 121.3159, 37.5326 ] } },
{ "type": "Feature", "id": 526, "properties": { "primary_fuel": "Coal", "name": "Huaneng Yichun power station" }, "geometry": { "type": "Point", "coordinates": [ 128.7506, 47.7384 ] } },
{ "type": "Feature", "id": 527, "properties": { "primary_fuel": "Coal", "name": "Huaneng Yimin power station" }, "geometry": { "type": "Point", "coordinates": [ 119.7739, 48.5497 ] } },
{ "type": "Feature", "id": 528, "properties": { "primary_fuel": "Coal", "name": "Huaneng Yingcheng power station" }, "geometry": { "type": "Point", "coordinates": [ 113.6611, 30.9149 ] } },
{ "type": "Feature", "id": 529, "properties": { "primary_fuel": "Coal", "name": "Huaneng Yingkou Coastal power station" }, "geometry": { "type": "Point", "coordinates": [ 122.1921, 40.5815 ] } },
{ "type": "Feature", "id": 530, "properties": { "primary_fuel": "Coal", "name": "Huaneng Yingkou power station" }, "geometry": { "type": "Point", "coordinates": [ 122.1054, 40.3042 ] } },
{ "type": "Feature", "id": 531, "properties": { "primary_fuel": "Coal", "name": "Huaneng Yueyang power station" }, "geometry": { "type": "Point", "coordinates": [ 113.1623, 29.4498 ] } },
{ "type": "Feature", "id": 532, "properties": { "primary_fuel": "Coal", "name": "Huaneng Yuhuan power station" }, "geometry": { "type": "Point", "coordinates": [ 121.1398, 28.1142 ] } },
{ "type": "Feature", "id": 533, "properties": { "primary_fuel": "Coal", "name": "Huaneng Yushe power station" }, "geometry": { "type": "Point", "coordinates": [ 112.9547, 36.9775 ] } },
{ "type": "Feature", "id": 534, "properties": { "primary_fuel": "Coal", "name": "Huaneng Zuoquan power station" }, "geometry": { "type": "Point", "coordinates": [ 113.3526, 37.0694 ] } },
{ "type": "Feature", "id": 535, "properties": { "primary_fuel": "Coal", "name": "Huangdao power station" }, "geometry": { "type": "Point", "coordinates": [ 120.2193, 36.039 ] } },
{ "type": "Feature", "id": 536, "properties": { "primary_fuel": "Coal", "name": "Huanghua Cangzhou power station" }, "geometry": { "type": "Point", "coordinates": [ 117.879, 38.3094 ] } },
{ "type": "Feature", "id": 537, "properties": { "primary_fuel": "Coal", "name": "Huangjiaozhuang Coal" }, "geometry": { "type": "Point", "coordinates": [ 104.5543, 28.7166 ] } },
{ "type": "Feature", "id": 538, "properties": { "primary_fuel": "Coal", "name": "Huangling waste coal power station" }, "geometry": { "type": "Point", "coordinates": [ 108.9229, 35.6603 ] } },
{ "type": "Feature", "id": 539, "properties": { "primary_fuel": "Coal", "name": "Huangshi power station" }, "geometry": { "type": "Point", "coordinates": [ 115.0752, 30.2287 ] } },
{ "type": "Feature", "id": 540, "properties": { "primary_fuel": "Coal", "name": "Huangtai power station" }, "geometry": { "type": "Point", "coordinates": [ 117.088, 36.7078 ] } },
{ "type": "Feature", "id": 541, "properties": { "primary_fuel": "Coal", "name": "Huantai power station" }, "geometry": { "type": "Point", "coordinates": [ 118.0399, 36.9788 ] } },
{ "type": "Feature", "id": 542, "properties": { "primary_fuel": "Coal", "name": "Huarun Cangnan power station" }, "geometry": { "type": "Point", "coordinates": [ 120.663, 27.4974 ] } },
{ "type": "Feature", "id": 543, "properties": { "primary_fuel": "Coal", "name": "Huawei Hetian power station" }, "geometry": { "type": "Point", "coordinates": [ 79.906, 37.1667 ] } },
{ "type": "Feature", "id": 544, "properties": { "primary_fuel": "Coal", "name": "Huayi Jinlong Cogen power station" },